rosbagTimestamp,header,seq,stamp,secs,nsecs,frame_id,pose,position,x,y,z,orientation,x,y,z,w
1690205323107684313,,22108,,1690205323,117023199,"""world""",,,3.8183629512786865,1.0111266374588013,-0.8128803372383118,,-0.006362027954310179,-0.7174341678619385,0.008542281575500965,0.6965449452400208
1690205323121674987,,22109,,1690205323,130899636,"""world""",,,3.8182852268218994,1.011133074760437,-0.8128575086593628,,-0.005309947766363621,-0.7168083786964417,0.009560056030750275,0.6971845030784607
1690205323123919462,,22110,,1690205323,133297203,"""world""",,,3.8182926177978516,1.011170744895935,-0.8128548860549927,,-0.005303323268890381,-0.7168179750442505,0.009505408816039562,0.6971754431724548
1690205323132860249,,22111,,1690205323,142209704,"""world""",,,3.8182966709136963,1.0111976861953735,-0.8128477931022644,,-0.005196169018745422,-0.7167402505874634,0.009739403612911701,0.6972528696060181
1690205323141335470,,22112,,1690205323,150421917,"""world""",,,3.8182969093322754,1.0112121105194092,-0.8128182291984558,,-0.0051100472919642925,-0.7167374491691589,0.009700650349259377,0.6972569823265076
1690205323150036321,,22113,,1690205323,159058181,"""world""",,,3.8183088302612305,1.0112024545669556,-0.812808096408844,,-0.005154761020094156,-0.7166833877563477,0.009757425636053085,0.6973113417625427
1690205323157397732,,22114,,1690205323,166829557,"""world""",,,3.8182878494262695,1.01123046875,-0.8128475546836853,,-0.005379350855946541,-0.7167946100234985,0.009341171942651272,0.6972010135650635
1690205323165682629,,22115,,1690205323,175319206,"""world""",,,3.8183062076568604,1.0112215280532837,-0.8128520846366882,,-0.0053839655593037605,-0.7168346047401428,0.009545481763780117,0.6971572041511536
1690205323174016797,,22116,,1690205323,183702258,"""world""",,,3.8182969093322754,1.0112357139587402,-0.8128349184989929,,-0.005408362485468388,-0.716646134853363,0.009699828922748566,0.6973485350608826
1690205323182250023,,22117,,1690205323,191849922,"""world""",,,3.8183207511901855,1.0112360715866089,-0.8128312826156616,,-0.005518067162483931,-0.7169164419174194,0.009641796350479126,0.6970706582069397
1690205323190314322,,22118,,1690205323,199899693,"""world""",,,3.8183135986328125,1.0112524032592773,-0.8128396272659302,,-0.005358513444662094,-0.7166875004768372,0.009713931940495968,0.697306215763092
1690205323198854580,,22119,,1690205323,208477577,"""world""",,,3.8183507919311523,1.0112662315368652,-0.8128750920295715,,-0.0060367644764482975,-0.7172884941101074,0.008614370599389076,0.696696937084198
1690205323209634033,,22120,,1690205323,219219430,"""world""",,,3.8182928562164307,1.0112818479537964,-0.8128145933151245,,-0.005350968334823847,-0.716819703578949,0.009612934663891792,0.6971718668937683
1690205323215606142,,22121,,1690205323,225075769,"""world""",,,3.8182976245880127,1.0113040208816528,-0.8128083348274231,,-0.005448811687529087,-0.7168228626251221,0.009586451575160027,0.6971681118011475
1690205323223632975,,22122,,1690205323,233311140,"""world""",,,3.8182992935180664,1.0113204717636108,-0.812831699848175,,-0.005283924750983715,-0.7167301177978516,0.009547043591737747,0.6972653269767761
1690205323231996132,,22123,,1690205323,241631434,"""world""",,,3.818298101425171,1.011344313621521,-0.812829315662384,,-0.005312203895300627,-0.7167447209358215,0.009773996658623219,0.6972469687461853
1690205323243679171,,22124,,1690205323,253281291,"""world""",,,3.818342447280884,1.0113146305084229,-0.8128213286399841,,-0.005889503750950098,-0.7173413038253784,0.008915908634662628,0.6966400742530823
1690205323249162585,,22125,,1690205323,258522051,"""world""",,,3.818347454071045,1.0113109350204468,-0.8128413558006287,,-0.00592792360112071,-0.7172589302062988,0.00891626626253128,0.6967244744300842
1690205323257317513,,22126,,1690205323,266716331,"""world""",,,3.818345069885254,1.0112988948822021,-0.8128334283828735,,-0.006292187143117189,-0.7171925902366638,0.00891694612801075,0.6967896223068237
1690205323265520996,,22127,,1690205323,275163506,"""world""",,,3.818291187286377,1.011283278465271,-0.8128185868263245,,-0.005362262949347496,-0.7168297171592712,0.009682610630989075,0.697160542011261
1690205323273483718,,22128,,1690205323,283122158,"""world""",,,3.818328380584717,1.0112656354904175,-0.8128492832183838,,-0.005162728950381279,-0.7168280482292175,0.009642701596021652,0.6971642971038818
1690205323282639159,,22129,,1690205323,292254617,"""world""",,,3.818385362625122,1.0112534761428833,-0.8128536939620972,,-0.006080795079469681,-0.7172543406486511,0.00903665367513895,0.6967264413833618
1690205323290806743,,22130,,1690205323,300188898,"""world""",,,3.818368911743164,1.011260747909546,-0.8128296732902527,,-0.006183321122080088,-0.7173401713371277,0.00883854366838932,0.6966396570205688
1690205323299283152,,22131,,1690205323,308924850,"""world""",,,3.818301200866699,1.0112597942352295,-0.8128354549407959,,-0.00534589821472764,-0.7167778611183167,0.00966760702431202,0.6972141861915588
1690205323307106168,,22132,,1690205323,316626402,"""world""",,,3.818392038345337,1.0113043785095215,-0.8128543496131897,,-0.006075155921280384,-0.7174250483512878,0.0086382320150733,0.6965556740760803
1690205323315655634,,22133,,1690205323,325068468,"""world""",,,3.818331241607666,1.011298418045044,-0.8128403425216675,,-0.0051910970360040665,-0.7168147563934326,0.009689658880233765,0.6971770524978638
1690205323323739752,,22134,,1690205323,333370780,"""world""",,,3.818333625793457,1.011313557624817,-0.8128552436828613,,-0.005441201850771904,-0.7169111371040344,0.00957926269620657,0.6970775127410889
1690205323332110797,,22135,,1690205323,341551710,"""world""",,,3.8183045387268066,1.0113312005996704,-0.8128721117973328,,-0.005215355195105076,-0.716679573059082,0.009608353488147259,0.6973169445991516
1690205323345489699,,22136,,1690205323,355129996,"""world""",,,3.8183505535125732,1.0113086700439453,-0.8128541707992554,,-0.005955319851636887,-0.7172488570213318,0.008821221068501472,0.6967358589172363
1690205323350922515,,22137,,1690205323,358784401,"""world""",,,3.8183019161224365,1.0112850666046143,-0.8128361105918884,,-0.005497633013874292,-0.7167559862136841,0.009823359549045563,0.697233259677887
1690205323360044255,,22138,,1690205323,366831884,"""world""",,,3.8182895183563232,1.0113214254379272,-0.8128505945205688,,-0.005403659772127867,-0.7168472409248352,0.009518849663436413,0.6971443891525269
1690205323366688526,,22139,,1690205323,376295209,"""world""",,,3.8182942867279053,1.011289358139038,-0.8128390908241272,,-0.005573637783527374,-0.7168166041374207,0.009680662304162979,0.6971723437309265
1690205323373443113,,22140,,1690205323,383111742,"""world""",,,3.818305253982544,1.011293649673462,-0.8128464221954346,,-0.005311627872288227,-0.7168415188789368,0.009499412029981613,0.6971513032913208
1690205323382541885,,22141,,1690205323,392211691,"""world""",,,3.818268299102783,1.0112879276275635,-0.8128364086151123,,-0.00558115029707551,-0.7167675495147705,0.009620754048228264,0.6972235441207886
1690205323390628544,,22142,,1690205323,400190041,"""world""",,,3.8182690143585205,1.011298656463623,-0.8128237724304199,,-0.005356748588383198,-0.7167925238609314,0.00972252432256937,0.6971981525421143
1690205323398796524,,22143,,1690205323,408457207,"""world""",,,3.818347692489624,1.011315941810608,-0.8128481507301331,,-0.006240065675228834,-0.717387318611145,0.008839271031320095,0.6965906023979187
1690205323407455322,,22144,,1690205323,417040795,"""world""",,,3.8183107376098633,1.0113402605056763,-0.8128331303596497,,-0.005446017254143953,-0.7167455554008484,0.00974021852016449,0.6972455382347107
1690205323415301025,,22145,,1690205323,424836749,"""world""",,,3.818305730819702,1.0113258361816406,-0.8128376603126526,,-0.005392231047153473,-0.716818630695343,0.009728868491947651,0.6971710324287415
1690205323423599381,,22146,,1690205323,433183677,"""world""",,,3.8182942867279053,1.0113275051116943,-0.812828004360199,,-0.005351290572434664,-0.7166891098022461,0.009868479333817959,0.697302520275116
1690205323431971772,,22147,,1690205323,441633632,"""world""",,,3.818363904953003,1.011317253112793,-0.8128644227981567,,-0.0060804313980042934,-0.7173565030097961,0.008746149018406868,0.6966249346733093
1690205323440673839,,22148,,1690205323,450334115,"""world""",,,3.8183627128601074,1.0112934112548828,-0.8128376603126526,,-0.006182909943163395,-0.7175070643424988,0.008577114902436733,0.696471095085144
1690205323448778199,,22149,,1690205323,458204892,"""world""",,,3.818366050720215,1.0113089084625244,-0.8128781914710999,,-0.006076321937143803,-0.7173489332199097,0.008853909559547901,0.6966313719749451
1690205323457036318,,22150,,1690205323,466694321,"""world""",,,3.818317413330078,1.0112849473953247,-0.8128423094749451,,-0.005338286980986595,-0.716730535030365,0.009759015403687954,0.6972615122795105
1690205323466256363,,22151,,1690205323,475832719,"""world""",,,3.8183228969573975,1.0112812519073486,-0.8128399848937988,,-0.005353699903935194,-0.7168356776237488,0.009800293482840061,0.6971527934074402
1690205323473898500,,22152,,1690205323,483569467,"""world""",,,3.8182930946350098,1.011298656463623,-0.8128569722175598,,-0.005283666308969259,-0.7168113589286804,0.0095646558329463,0.6971815228462219
1690205323482832194,,22153,,1690205323,492481529,"""world""",,,3.8182835578918457,1.0112987756729126,-0.8128260374069214,,-0.0054342797957360744,-0.7167797088623047,0.00971207581460476,0.6972108483314514
1690205323490679840,,22154,,1690205323,500315506,"""world""",,,3.818354606628418,1.0113366842269897,-0.8128502368927002,,-0.006106903310865164,-0.717300534248352,0.008949175477027893,0.6966796517372131
1690205323498903236,,22155,,1690205323,508582979,"""world""",,,3.818283796310425,1.0113239288330078,-0.81284499168396,,-0.005461065098643303,-0.7167218327522278,0.009733319282531738,0.6972699761390686
1690205323506830212,,22156,,1690205323,516457651,"""world""",,,3.818284034729004,1.0113331079483032,-0.8128151893615723,,-0.005589480511844158,-0.7167531847953796,0.009869773872196674,0.6972346901893616
1690205323515490590,,22157,,1690205323,524962628,"""world""",,,3.8182857036590576,1.011317253112793,-0.8128136992454529,,-0.005495330784469843,-0.7168078422546387,0.009787611663341522,0.697180449962616
1690205323523676320,,22158,,1690205323,533292618,"""world""",,,3.8182947635650635,1.011328101158142,-0.8128268718719482,,-0.0054457043297588825,-0.7167560458183289,0.009638621471822262,0.6972361207008362
1690205323531990760,,22159,,1690205323,541638387,"""world""",,,3.8183019161224365,1.0113431215286255,-0.812824547290802,,-0.0052769421599805355,-0.7166903614997864,0.009792701341211796,0.6973028779029846
1690205323540593927,,22160,,1690205323,550192628,"""world""",,,3.818289041519165,1.011309027671814,-0.8128106594085693,,-0.005164534784853458,-0.7167221903800964,0.009862321428954601,0.6972699761390686
1690205323549886111,,22161,,1690205323,559448944,"""world""",,,3.818312168121338,1.011309027671814,-0.8128430247306824,,-0.0053582158870995045,-0.7167617678642273,0.009657218120992184,0.6972306370735168
1690205323557603124,,22162,,1690205323,566973196,"""world""",,,3.8183207511901855,1.0112909078598022,-0.8128190040588379,,-0.005396019667387009,-0.7168483138084412,0.009669315069913864,0.6971412897109985
1690205323566715720,,22163,,1690205323,576296561,"""world""",,,3.8183085918426514,1.0113030672073364,-0.8128204345703125,,-0.005274799652397633,-0.7167294025421143,0.00985612254589796,0.6972618103027344
1690205323574269134,,22164,,1690205323,583839261,"""world""",,,3.8183467388153076,1.0113104581832886,-0.8128096461296082,,-0.00538339139893651,-0.7165324687957764,0.009632468223571777,0.6974665522575378
1690205323583367446,,22165,,1690205323,591984470,"""world""",,,3.8183207511901855,1.0113139152526855,-0.8128274083137512,,-0.005182074382901192,-0.7167308926582336,0.009696985594928265,0.6972631812095642
1690205323590597269,,22166,,1690205323,600037291,"""world""",,,3.818307399749756,1.0113259553909302,-0.8128112554550171,,-0.005461981054395437,-0.7168033123016357,0.009729152545332909,0.6971862316131592
1690205323599772410,,22167,,1690205323,609302693,"""world""",,,3.818293571472168,1.0113340616226196,-0.8128103017807007,,-0.005206020083278418,-0.7167072296142578,0.009737459942698479,0.69728684425354
1690205323607308475,,22168,,1690205323,616892587,"""world""",,,3.8182942867279053,1.0113608837127686,-0.8128092288970947,,-0.005213865078985691,-0.7166233062744141,0.00990965310484171,0.6973705291748047
1690205323615814469,,22169,,1690205323,625415617,"""world""",,,3.8183705806732178,1.0113388299942017,-0.812804639339447,,-0.006062295753508806,-0.7172816395759583,0.009041178971529007,0.6966983079910278
1690205323623976173,,22170,,1690205323,633587154,"""world""",,,3.818361759185791,1.0113555192947388,-0.8128170967102051,,-0.006411288864910603,-0.7172590494155884,0.009160199202597141,0.6967169642448425
1690205323632968815,,22171,,1690205323,641906768,"""world""",,,3.818289279937744,1.0113556385040283,-0.8127966523170471,,-0.005306186620146036,-0.716740071773529,0.009792031720280647,0.697251558303833
1690205323640562500,,22172,,1690205323,650175791,"""world""",,,3.8182761669158936,1.0113595724105835,-0.8127998113632202,,-0.005332492757588625,-0.7167508602142334,0.009692435152828693,0.6972416043281555
1690205323651069162,,22173,,1690205323,660568776,"""world""",,,3.8182950019836426,1.0113489627838135,-0.8127896189689636,,-0.005254804156720638,-0.7166975736618042,0.009730497375130653,0.6972964406013489
1690205323657858982,,22174,,1690205323,667477151,"""world""",,,3.8182849884033203,1.0113472938537598,-0.8127787113189697,,-0.005379353649914265,-0.7167164087295532,0.009911063127219677,0.6972736120223999
1690205323667077349,,22175,,1690205323,675345121,"""world""",,,3.8182945251464844,1.0113704204559326,-0.8127748370170593,,-0.005192160606384277,-0.7167556881904602,0.009674180299043655,0.6972379684448242
1690205323676602452,,22176,,1690205323,686092438,"""world""",,,3.8183014392852783,1.0113744735717773,-0.812818706035614,,-0.005312425084412098,-0.7167694568634033,0.00963324774056673,0.6972235441207886
1690205323682258875,,22177,,1690205323,691922965,"""world""",,,3.8183045387268066,1.0113784074783325,-0.81280517578125,,-0.005399071611464024,-0.7167629599571228,0.009722107090055943,0.6972282528877258
1690205323690666234,,22178,,1690205323,700184891,"""world""",,,3.818290948867798,1.0113526582717896,-0.8127885460853577,,-0.00543110491707921,-0.7169182300567627,0.00956714991480112,0.6970705389976501
1690205323699197062,,22179,,1690205323,708812226,"""world""",,,3.8183822631835938,1.011353611946106,-0.812803328037262,,-0.0059894658625125885,-0.7172237634658813,0.00902958307415247,0.6967588067054749
1690205323707553240,,22180,,1690205323,716936551,"""world""",,,3.8183066844940186,1.0113513469696045,-0.8128002882003784,,-0.005453549325466156,-0.7167619466781616,0.009686959907412529,0.6972293257713318
1690205323715542749,,22181,,1690205323,725204481,"""world""",,,3.8183884620666504,1.0113465785980225,-0.8128105998039246,,-0.006261650938540697,-0.7173184156417847,0.009022991172969341,0.6966589689254761
1690205323724938503,,22182,,1690205323,734165733,"""world""",,,3.8183207511901855,1.0113598108291626,-0.8128250241279602,,-0.0054336427710950375,-0.7168484330177307,0.009743893519043922,0.6971397995948792
1690205323732590575,,22183,,1690205323,742083100,"""world""",,,3.818312168121338,1.0113335847854614,-0.8128123879432678,,-0.0054022036492824554,-0.716727077960968,0.00975845754146576,0.6972646117210388
1690205323740962289,,22184,,1690205323,750289241,"""world""",,,3.8183815479278564,1.0113239288330078,-0.8128494024276733,,-0.006208093836903572,-0.7173091769218445,0.008835469372570515,0.6966713070869446
1690205323750567382,,22185,,1690205323,759717989,"""world""",,,3.8183200359344482,1.0113059282302856,-0.8127968311309814,,-0.005337813403457403,-0.7167931199073792,0.00974961370229721,0.6971972584724426
1690205323757896543,,22186,,1690205323,767458500,"""world""",,,3.8183250427246094,1.011350154876709,-0.812801718711853,,-0.00541532039642334,-0.7167094349861145,0.009720832109451294,0.697283148765564
1690205323766225895,,22187,,1690205323,775814620,"""world""",,,3.818324565887451,1.0113484859466553,-0.8128213286399841,,-0.005510376300662756,-0.7167700529098511,0.009756229817867279,0.6972196102142334
1690205323774420777,,22188,,1690205323,783939745,"""world""",,,3.8183021545410156,1.0113450288772583,-0.812802791595459,,-0.005263001658022404,-0.7167268395423889,0.009810141287744045,0.6972652077674866
1690205323782224272,,22189,,1690205323,791842856,"""world""",,,3.8182787895202637,1.0113794803619385,-0.8128048181533813,,-0.005466538015753031,-0.7167829871177673,0.009566545486450195,0.697209358215332
1690205323790468533,,22190,,1690205323,800036774,"""world""",,,3.818297863006592,1.011376142501831,-0.8128243088722229,,-0.005315771326422691,-0.7167582511901855,0.009772568009793758,0.6972330212593079
1690205323798929253,,22191,,1690205323,808524825,"""world""",,,3.818291664123535,1.0113648176193237,-0.8127935528755188,,-0.005325692240148783,-0.7167620062828064,0.009782496839761734,0.6972289085388184
1690205323807506342,,22192,,1690205323,817000813,"""world""",,,3.818373918533325,1.0113877058029175,-0.8128116130828857,,-0.006362625863403082,-0.7173627614974976,0.008988405577838421,0.6966128945350647
1690205323815853555,,22193,,1690205323,825527164,"""world""",,,3.8182899951934814,1.0113829374313354,-0.8127986192703247,,-0.0054462626576423645,-0.7167614698410034,0.009713002480566502,0.6972295045852661
1690205323824486515,,22194,,1690205323,834085877,"""world""",,,3.818298101425171,1.0113624334335327,-0.8127914071083069,,-0.005484848283231258,-0.7168627977371216,0.009486302733421326,0.697128176689148
1690205323832580522,,22195,,1690205323,842203416,"""world""",,,3.8182897567749023,1.0113540887832642,-0.8128035068511963,,-0.005296208430081606,-0.7166649699211121,0.00978868268430233,0.6973287463188171
1690205323843517755,,22196,,1690205323,853105713,"""world""",,,3.8183679580688477,1.0113426446914673,-0.8128079175949097,,-0.006184030789881945,-0.7172931432723999,0.00892002135515213,0.6966870427131653
1690205323850232245,,22197,,1690205323,859850186,"""world""",,,3.8183677196502686,1.0113415718078613,-0.8128289580345154,,-0.0061089894734323025,-0.7174103856086731,0.008742522448301315,0.6965692639350891
1690205323857599684,,22198,,1690205323,867162073,"""world""",,,3.818307876586914,1.0113420486450195,-0.812828779220581,,-0.005300785414874554,-0.7168182730674744,0.009580239653587341,0.6971741318702698
1690205323866823394,,22199,,1690205323,876111470,"""world""",,,3.818315267562866,1.0113327503204346,-0.8128370642662048,,-0.005462883971631527,-0.7167037129402161,0.009778261184692383,0.6972878575325012
1690205323873708589,,22200,,1690205323,883290853,"""world""",,,3.8183743953704834,1.0113059282302856,-0.8128141164779663,,-0.00624433858320117,-0.7173534631729126,0.008871532045304775,0.6966249942779541
1690205323883246187,,22201,,1690205323,892837734,"""world""",,,3.8182899951934814,1.0113317966461182,-0.8128218650817871,,-0.005523354280740023,-0.7167735695838928,0.009685896337032318,0.6972169280052185
1690205323891092514,,22202,,1690205323,900641316,"""world""",,,3.8183250427246094,1.0113255977630615,-0.8128072619438171,,-0.005357410293072462,-0.7168221473693848,0.009532970376312733,0.6971703171730042
1690205323901087096,,22203,,1690205323,910597789,"""world""",,,3.818312168121338,1.0113499164581299,-0.8128419518470764,,-0.005512665957212448,-0.7167614102363586,0.009692109189927578,0.6972293853759766
1690205323907719648,,22204,,1690205323,917336071,"""world""",,,3.81837797164917,1.0113558769226074,-0.8128331303596497,,-0.006031378637999296,-0.7172966599464417,0.008800533600151539,0.6966862082481384
1690205323916033740,,22205,,1690205323,925626778,"""world""",,,3.818387508392334,1.0113654136657715,-0.8128250241279602,,-0.006260277703404427,-0.7173921465873718,0.008673753589391708,0.6965874433517456
1690205323924582530,,22206,,1690205323,933898187,"""world""",,,3.8183839321136475,1.011355996131897,-0.8128365874290466,,-0.006188540253788233,-0.7173824310302734,0.008804176934063435,0.6965965628623962
1690205323934309838,,22207,,1690205323,943917748,"""world""",,,3.81830096244812,1.0113345384597778,-0.8128117918968201,,-0.005356747191399336,-0.7167755961418152,0.009608324617147446,0.6972171664237976
1690205323940896491,,22208,,1690205323,950438225,"""world""",,,3.8182971477508545,1.0113506317138672,-0.812796950340271,,-0.005431396421045065,-0.7168455719947815,0.0096907252445817,0.6971434354782104
1690205323949756293,,22209,,1690205323,959325608,"""world""",,,3.818312406539917,1.0113613605499268,-0.8127958178520203,,-0.005239707417786121,-0.7166768908500671,0.009628072381019592,0.6973193287849426
1690205323957798699,,22210,,1690205323,967335947,"""world""",,,3.8183045387268066,1.0113589763641357,-0.8127968311309814,,-0.005322050303220749,-0.7167059183120728,0.009719226509332657,0.6972874999046326
1690205323966286626,,22211,,1690205323,975750327,"""world""",,,3.818310022354126,1.0113577842712402,-0.8127768039703369,,-0.0051703862845897675,-0.716596782207489,0.009834656491875648,0.6973991394042969
1690205323975362684,,22212,,1690205323,985000616,"""world""",,,3.8182928562164307,1.0113476514816284,-0.8127927184104919,,-0.00540822884067893,-0.7166591286659241,0.009509701281785965,0.697337806224823
1690205323982902900,,22213,,1690205323,992554401,"""world""",,,3.8183140754699707,1.0113403797149658,-0.8128092288970947,,-0.005405514035373926,-0.7166935801506042,0.009514015167951584,0.6973024010658264
1690205323990538847,,22214,,1690205324,191745,"""world""",,,3.8183069229125977,1.0113171339035034,-0.8127970695495605,,-0.0054745846427977085,-0.7168196439743042,0.009633712470531464,0.6971705555915833
1690205323999626656,,22215,,1690205324,9217982,"""world""",,,3.8183157444000244,1.0113121271133423,-0.8127828240394592,,-0.00535229779779911,-0.716728925704956,0.00961698591709137,0.6972649693489075
1690205324007210664,,22216,,1690205324,16820741,"""world""",,,3.8183813095092773,1.0113298892974854,-0.8128257989883423,,-0.006152534857392311,-0.7173370122909546,0.008735915645956993,0.6966444253921509
1690205324016051507,,22217,,1690205324,25697181,"""world""",,,3.818328619003296,1.0112892389297485,-0.8128024935722351,,-0.005326488986611366,-0.7168410420417786,0.009771574288606644,0.6971479058265686
1690205324027176122,,22218,,1690205324,36786354,"""world""",,,3.8183035850524902,1.0113134384155273,-0.8128253817558289,,-0.005258671939373016,-0.7166882157325745,0.009712211787700653,0.697306215763092
1690205324031902601,,22219,,1690205324,41490605,"""world""",,,3.818402051925659,1.0113266706466675,-0.8128241300582886,,-0.006115985568612814,-0.7173072099685669,0.008768757805228233,0.6966750025749207
1690205324040861227,,22220,,1690205324,49901251,"""world""",,,3.8183202743530273,1.011323094367981,-0.812800407409668,,-0.005057391710579395,-0.7166593670845032,0.009756320156157017,0.6973368525505066
1690205324049330007,,22221,,1690205324,58712619,"""world""",,,3.818389654159546,1.0113118886947632,-0.8128196001052856,,-0.00602576183155179,-0.7172259092330933,0.008894002996385098,0.696757972240448
1690205324057479664,,22222,,1690205324,66945904,"""world""",,,3.818312644958496,1.011317491531372,-0.8128013610839844,,-0.005327724851667881,-0.716706395149231,0.009406181052327156,0.697291374206543
1690205324065465788,,22223,,1690205324,75120243,"""world""",,,3.818331003189087,1.0113102197647095,-0.812781035900116,,-0.005391902290284634,-0.716857373714447,0.009654288180172443,0.6971321702003479
1690205324074243716,,22224,,1690205324,83322661,"""world""",,,3.818314790725708,1.0113476514816284,-0.8128186464309692,,-0.005588451866060495,-0.7168277502059937,0.009399594739079475,0.6971645355224609
1690205324082120081,,22225,,1690205324,91749829,"""world""",,,3.818338632583618,1.0113143920898438,-0.8128098249435425,,-0.0051997872069478035,-0.7167359590530396,0.00974576361477375,0.6972572207450867
1690205324090306130,,22226,,1690205324,99798290,"""world""",,,3.818458318710327,1.0112671852111816,-0.8127614259719849,,-0.005874971859157085,-0.7170748710632324,0.008823146112263203,0.6969156265258789
1690205324099245913,,22227,,1690205324,108762827,"""world""",,,3.818397283554077,1.0112048387527466,-0.8127648830413818,,-0.006240790709853172,-0.7173147201538086,0.008794962428510189,0.6966659426689148
1690205324107460750,,22228,,1690205324,117105630,"""world""",,,3.8183481693267822,1.0111966133117676,-0.8127740621566772,,-0.00530593516305089,-0.7168188691139221,0.009497858583927155,0.6971745491027832
1690205324117799169,,22229,,1690205324,127443704,"""world""",,,3.818382740020752,1.0111851692199707,-0.812752366065979,,-0.005270299967378378,-0.7167782783508301,0.009535877965390682,0.6972159743309021
1690205324123772554,,22230,,1690205324,133186746,"""world""",,,3.81846284866333,1.011160135269165,-0.8128112554550171,,-0.006145584397017956,-0.7173476219177246,0.008665543049573898,0.6966344118118286
1690205324132061354,,22231,,1690205324,141616866,"""world""",,,3.8184916973114014,1.0111628770828247,-0.8127717971801758,,-0.005935193505138159,-0.7169656753540039,0.008812488988041878,0.6970275044441223
1690205324140588223,,22232,,1690205324,150183745,"""world""",,,3.8184261322021484,1.0111826658248901,-0.8127438426017761,,-0.0050581651739776134,-0.7164953351020813,0.009509395807981491,0.6975088119506836
1690205324149204607,,22233,,1690205324,158828615,"""world""",,,3.818526268005371,1.0112134218215942,-0.8127525448799133,,-0.005849248729646206,-0.7169658541679382,0.008783170022070408,0.6970285177230835
1690205324160851241,,22234,,1690205324,166678859,"""world""",,,3.8185462951660156,1.0112296342849731,-0.8127442002296448,,-0.006064753979444504,-0.7171154618263245,0.008708016015589237,0.6968736052513123
1690205324165720436,,22235,,1690205324,175329520,"""world""",,,3.8185596466064453,1.011264681816101,-0.8127506375312805,,-0.005485136527568102,-0.7170272469520569,0.009007827378809452,0.6969653964042664
1690205324174626687,,22236,,1690205324,184195268,"""world""",,,3.8185510635375977,1.0112831592559814,-0.812724769115448,,-0.00586017407476902,-0.7170582413673401,0.008699784986674786,0.6969343423843384
1690205324182223545,,22237,,1690205324,191803800,"""world""",,,3.818542242050171,1.0112706422805786,-0.812702476978302,,-0.005897586699575186,-0.7171629667282104,0.008753311820328236,0.6968255639076233
1690205324191014721,,22238,,1690205324,200212307,"""world""",,,3.818509340286255,1.0112496614456177,-0.8127643465995789,,-0.005882383789867163,-0.7174351811408997,0.008505970239639282,0.6965485215187073
1690205324199500532,,22239,,1690205324,208978339,"""world""",,,3.8185441493988037,1.0112180709838867,-0.812744677066803,,-0.005776161327958107,-0.7170857191085815,0.008538547903299332,0.6969088315963745
1690205324211598637,,22240,,1690205324,221202204,"""world""",,,3.8185155391693115,1.0111870765686035,-0.8126894235610962,,-0.005792355630546808,-0.7170672416687012,0.008734607137739658,0.6969252824783325
1690205324215579502,,22241,,1690205324,225204203,"""world""",,,3.8185160160064697,1.0111759901046753,-0.8127051591873169,,-0.005739839281886816,-0.7170098423957825,0.008730534464120865,0.6969848275184631
1690205324223896887,,22242,,1690205324,233378276,"""world""",,,3.8184194564819336,1.0111802816390991,-0.812745213508606,,-0.005184246692806482,-0.7167969346046448,0.009465142153203487,0.6971985697746277
1690205324232102078,,22243,,1690205324,241611381,"""world""",,,3.818443536758423,1.0111823081970215,-0.8126852512359619,,-0.004863571375608444,-0.7164182662963867,0.009750469587743282,0.697585940361023
1690205324240637835,,22244,,1690205324,249873195,"""world""",,,3.818467855453491,1.0112202167510986,-0.8127484917640686,,-0.005934516899287701,-0.717272162437439,0.00876288115978241,0.696712851524353
1690205324250012710,,22245,,1690205324,259334382,"""world""",,,3.818481683731079,1.0112415552139282,-0.8127248883247375,,-0.00589197501540184,-0.7169824242591858,0.008758220821619034,0.6970113515853882
1690205324257472262,,22246,,1690205324,266826717,"""world""",,,3.8184003829956055,1.0112297534942627,-0.8126940727233887,,-0.004977781791239977,-0.7164146304130554,0.009705203585326672,0.6975895762443542
1690205324268092723,,22247,,1690205324,277687175,"""world""",,,3.8184351921081543,1.0112342834472656,-0.8127550482749939,,-0.006154542788863182,-0.7173270583152771,0.008732900954782963,0.6966547966003418
1690205324276081141,,22248,,1690205324,285664271,"""world""",,,3.8183557987213135,1.0112221240997314,-0.8127333521842957,,-0.00525665981695056,-0.7168631553649902,0.009324280545115471,0.6971317529678345
1690205324282637860,,22249,,1690205324,292278500,"""world""",,,3.8184304237365723,1.0112268924713135,-0.8127716779708862,,-0.005903948564082384,-0.717285692691803,0.008793866261839867,0.696698784828186
1690205324290283514,,22250,,1690205324,299928744,"""world""",,,3.8183727264404297,1.0111740827560425,-0.8127517104148865,,-0.00512557290494442,-0.7168757319450378,0.009516858495771885,0.6971171498298645
1690205324298985612,,22251,,1690205324,308448031,"""world""",,,3.81845760345459,1.0111899375915527,-0.812764585018158,,-0.0059374007396399975,-0.7173301577568054,0.008815422654151917,0.6966524124145508
1690205324306917281,,22252,,1690205324,316534316,"""world""",,,3.8184351921081543,1.0111677646636963,-0.8127521276473999,,-0.006126943975687027,-0.717369794845581,0.008686527609825134,0.6966115236282349
1690205324315467854,,22253,,1690205324,325111428,"""world""",,,3.8183746337890625,1.01117742061615,-0.8127604722976685,,-0.0051939841359853745,-0.7167875170707703,0.009592671878635883,0.6972063779830933
1690205324324124025,,22254,,1690205324,333543668,"""world""",,,3.818478584289551,1.011181354522705,-0.8127365112304688,,-0.005886433646082878,-0.7170479893684387,0.008656872436404228,0.6969451904296875
1690205324332253033,,22255,,1690205324,341796389,"""world""",,,3.818472385406494,1.0112167596817017,-0.8127267360687256,,-0.005784325301647186,-0.7169955372810364,0.008624956011772156,0.6970005035400391
1690205324340676866,,22256,,1690205324,350197851,"""world""",,,3.8185067176818848,1.0112229585647583,-0.8126986026763916,,-0.005695936735719442,-0.7170506119728088,0.008793968707323074,0.6969424486160278
1690205324349509094,,22257,,1690205324,359087938,"""world""",,,3.818488359451294,1.0112693309783936,-0.8127695918083191,,-0.005975981708616018,-0.7172440886497498,0.00888028647750616,0.6967397928237915
1690205324359358024,,22258,,1690205324,368906577,"""world""",,,3.8185083866119385,1.0112698078155518,-0.8127185702323914,,-0.00573213305324316,-0.7170825004577637,0.00866442359983921,0.6969109177589417
1690205324366790231,,22259,,1690205324,376392199,"""world""",,,3.8185105323791504,1.011259913444519,-0.8127056956291199,,-0.005690493620932102,-0.7170937657356262,0.008550659753382206,0.6969011425971985
1690205324374158996,,22260,,1690205324,383779153,"""world""",,,3.8185198307037354,1.0112600326538086,-0.8127325177192688,,-0.00592332798987627,-0.7170831561088562,0.00855043064802885,0.6969100832939148
1690205324382468311,,22261,,1690205324,392058933,"""world""",,,3.8185064792633057,1.0112242698669434,-0.8127713799476624,,-0.006066901609301567,-0.7173358201980591,0.008712025359272957,0.6966467499732971
1690205324390436080,,22262,,1690205324,400023055,"""world""",,,3.818542718887329,1.0111900568008423,-0.8127230405807495,,-0.005979625042527914,-0.7171047329902649,0.008776911534368992,0.6968845725059509
1690205324399332887,,22263,,1690205324,408952671,"""world""",,,3.8184309005737305,1.0111873149871826,-0.8127774000167847,,-0.005387201905250549,-0.7169145941734314,0.009456789121031761,0.697076141834259
1690205324407371809,,22264,,1690205324,416881449,"""world""",,,3.8185367584228516,1.0111771821975708,-0.8127420544624329,,-0.005748240277171135,-0.7170539498329163,0.008800249546766281,0.6969385147094727
1690205324415577810,,22265,,1690205324,425198931,"""world""",,,3.81854248046875,1.0111664533615112,-0.8127708435058594,,-0.005685741081833839,-0.7170189619064331,0.008661419153213501,0.6969767212867737
1690205324423596571,,22266,,1690205324,433227050,"""world""",,,3.8185410499572754,1.0111701488494873,-0.8127414584159851,,-0.00582800293341279,-0.7170795798301697,0.008843298070132732,0.6969109177589417
1690205324432406215,,22267,,1690205324,442016543,"""world""",,,3.818465232849121,1.0111969709396362,-0.8127286434173584,,-0.004722327925264835,-0.7163567543029785,0.00983706396073103,0.6976488828659058
1690205324441074549,,22268,,1690205324,450199923,"""world""",,,3.8184738159179688,1.0112178325653076,-0.8127758502960205,,-0.005953038111329079,-0.7173487544059753,0.008759291842579842,0.6966337561607361
1690205324449351112,,22269,,1690205324,458399344,"""world""",,,3.81846284866333,1.011230230331421,-0.8127759099006653,,-0.00609515979886055,-0.717440664768219,0.00877996813505888,0.6965377330780029
1690205324457036617,,22270,,1690205324,466645918,"""world""",,,3.818385124206543,1.011223316192627,-0.8127388954162598,,-0.005217306781560183,-0.7168672680854797,0.009711829014122486,0.6971225738525391
1690205324470040298,,22271,,1690205324,479263230,"""world""",,,3.818450450897217,1.0112484693527222,-0.8127650618553162,,-0.006239023525267839,-0.7174387574195862,0.008612561039626598,0.6965404748916626
1690205324474414083,,22272,,1690205324,483850375,"""world""",,,3.8183789253234863,1.0111987590789795,-0.8127341866493225,,-0.005238434765487909,-0.7167524695396423,0.009699990041553974,0.6972405910491943
1690205324484675774,,22273,,1690205324,494272925,"""world""",,,3.8183915615081787,1.0111947059631348,-0.8127020001411438,,-0.0050137462094426155,-0.7164303660392761,0.009527495130896568,0.697575569152832
1690205324509419707,,22274,,1690205324,518962713,"""world""",,,3.818416118621826,1.0111883878707886,-0.8127862215042114,,-0.006042629946023226,-0.7172870635986328,0.008653128519654274,0.6966978311538696
1690205324526968922,,22275,,1690205324,536570393,"""world""",,,3.8183374404907227,1.0111804008483887,-0.8127778172492981,,-0.005282181315124035,-0.716755747795105,0.009432663209736347,0.6972405314445496
1690205324553684334,,22276,,1690205324,563279726,"""world""",,,3.818406581878662,1.0111750364303589,-0.8127725720405579,,-0.006119977217167616,-0.717361330986023,0.008717037737369537,0.696619987487793
1690205324559152280,,22277,,1690205324,568770119,"""world""",,,3.8184521198272705,1.0111936330795288,-0.8127762079238892,,-0.0058355932123959064,-0.7170165181159973,0.008778679184615612,0.6969764828681946
1690205324566044639,,22278,,1690205324,575473379,"""world""",,,3.818431854248047,1.011208176612854,-0.8127650022506714,,-0.006177510134875774,-0.7174128293991089,0.008689730428159237,0.6965667009353638
1690205324570983003,,22279,,1690205324,580516137,"""world""",,,3.8184330463409424,1.0112000703811646,-0.8127621412277222,,-0.006172767374664545,-0.7172644734382629,0.00892448890954256,0.6967166066169739
1690205324577007352,,22280,,1690205324,585562079,"""world""",,,3.818446397781372,1.011202335357666,-0.8127949833869934,,-0.005990790203213692,-0.7172819972038269,0.008720430545508862,0.6967027187347412
1690205324577273079,,22281,,1690205324,585648592,"""world""",,,3.818453788757324,1.0111865997314453,-0.812767505645752,,-0.005949495360255241,-0.7173576951026917,0.008773832581937313,0.6966244578361511
1690205324577615288,,22282,,1690205324,585671606,"""world""",,,3.818506956100464,1.0111905336380005,-0.8127428889274597,,-0.005994727369397879,-0.7171066999435425,0.008655066601932049,0.6968838572502136
1690205324577625833,,22283,,1690205324,585691478,"""world""",,,3.8184146881103516,1.0111756324768066,-0.8127709031105042,,-0.005301378201693296,-0.7167986631393433,0.009740197099745274,0.6971920728683472
1690205324587500399,,22284,,1690205324,596246138,"""world""",,,3.8185031414031982,1.0111733675003052,-0.8128244876861572,,-0.006033253390341997,-0.7174562215805054,0.008672930300235748,0.6965234875679016
1690205324591736775,,22285,,1690205324,600507347,"""world""",,,3.8185160160064697,1.0111664533615112,-0.8127799034118652,,-0.005862509366124868,-0.7170000076293945,0.00883669313043356,0.6969925165176392
1690205324594215789,,22286,,1690205324,603322968,"""world""",,,3.8184986114501953,1.0111618041992188,-0.8127719759941101,,-0.005884729325771332,-0.7172797918319702,0.008809680119156837,0.6967047452926636
1690205324602169007,,22287,,1690205324,611753491,"""world""",,,3.818537950515747,1.0111464262008667,-0.8127821087837219,,-0.005690587684512138,-0.7170922756195068,0.008709526620805264,0.6969006061553955
1690205324608399433,,22288,,1690205324,617880580,"""world""",,,3.8185250759124756,1.0111714601516724,-0.8127760291099548,,-0.005992257501929998,-0.7171175479888916,0.008649528957903385,0.696872889995575
1690205324615968333,,22289,,1690205324,625593018,"""world""",,,3.818511724472046,1.0111666917800903,-0.8127473592758179,,-0.005716272629797459,-0.7170710563659668,0.008716783486306667,0.6969221830368042
1690205324623762968,,22290,,1690205324,633402048,"""world""",,,3.8185229301452637,1.011191964149475,-0.8127427101135254,,-0.005660383962094784,-0.7169879674911499,0.008720727637410164,0.6970080137252808
1690205324632699023,,22291,,1690205324,642222713,"""world""",,,3.8184986114501953,1.0111747980117798,-0.8127314448356628,,-0.005661787465214729,-0.7169912457466125,0.008843189105391502,0.6970031261444092
1690205324641268746,,22292,,1690205324,650901613,"""world""",,,3.8185172080993652,1.0112106800079346,-0.812744140625,,-0.0059557086788117886,-0.7171099185943604,0.008843740448355675,0.6968786120414734
1690205324650993732,,22293,,1690205324,660091651,"""world""",,,3.8184337615966797,1.011208415031433,-0.8127396702766418,,-0.0052904728800058365,-0.7165554165840149,0.009394743479788303,0.6974469423294067
1690205324657420723,,22294,,1690205324,667038233,"""world""",,,3.8184170722961426,1.0112196207046509,-0.8128002285957336,,-0.005445948801934719,-0.7168698310852051,0.009444852359592915,0.6971218585968018
1690205324665608936,,22295,,1690205324,675057646,"""world""",,,3.8184194564819336,1.011191725730896,-0.8127456903457642,,-0.005200991407036781,-0.7165531516075134,0.009382851421833038,0.6974500417709351
1690205324676394601,,22296,,1690205324,685971111,"""world""",,,3.8184773921966553,1.0111589431762695,-0.8127546310424805,,-0.005929804872721434,-0.7170486450195312,0.008729685097932816,0.6969432830810547
1690205324683323676,,22297,,1690205324,692913547,"""world""",,,3.8184638023376465,1.0111559629440308,-0.8127999305725098,,-0.00596134876832366,-0.7174230217933655,0.008517663925886154,0.6965603232383728
1690205324693013617,,22298,,1690205324,702620328,"""world""",,,3.8184006214141846,1.0111643075942993,-0.812813937664032,,-0.005438501015305519,-0.7168263792991638,0.009502362459897995,0.6971657276153564
1690205324699244206,,22299,,1690205324,708861233,"""world""",,,3.818455457687378,1.0111802816390991,-0.8128348588943481,,-0.005822787061333656,-0.7172427177429199,0.008910980075597763,0.6967421770095825
1690205324707848348,,22300,,1690205324,717429884,"""world""",,,3.8184807300567627,1.0111706256866455,-0.8127699494361877,,-0.005826740991324186,-0.7171201109886169,0.008822229690849781,0.6968694925308228
1690205324716246194,,22301,,1690205324,725877658,"""world""",,,3.81840443611145,1.0111749172210693,-0.8127465844154358,,-0.005001735407859087,-0.7164588570594788,0.009570842608809471,0.6975457668304443
1690205324724551382,,22302,,1690205324,734071846,"""world""",,,3.8184354305267334,1.0111627578735352,-0.8128023147583008,,-0.005994212348014116,-0.7172723412513733,0.008789082989096642,0.6967117190361023
1690205324733937380,,22303,,1690205324,742393891,"""world""",,,3.8184571266174316,1.0111953020095825,-0.812832236289978,,-0.006082975305616856,-0.7173414826393127,0.00877497997134924,0.6966400146484375
1690205324740952280,,22304,,1690205324,750253990,"""world""",,,3.818371295928955,1.0111802816390991,-0.8128111362457275,,-0.005214549135416746,-0.716816246509552,0.009564334526658058,0.6971770524978638
1690205324749841851,,22305,,1690205324,759315453,"""world""",,,3.818390130996704,1.011175513267517,-0.8127800822257996,,-0.005410832352936268,-0.7169010639190674,0.009579918347299099,0.6970881819725037
1690205324757239422,,22306,,1690205324,766852759,"""world""",,,3.8184587955474854,1.011170506477356,-0.812772274017334,,-0.006126560736447573,-0.7173240184783936,0.008694039657711983,0.6966585516929626
1690205324767168504,,22307,,1690205324,775908135,"""world""",,,3.818448066711426,1.011164903640747,-0.8127841949462891,,-0.006156563758850098,-0.7173970341682434,0.008903509005904198,0.6965805292129517
1690205324775230681,,22308,,1690205324,784675412,"""world""",,,3.818495988845825,1.0111777782440186,-0.8127515912055969,,-0.005873458459973335,-0.7170696258544922,0.008783586323261261,0.6969215273857117
1690205324782916858,,22309,,1690205324,792473225,"""world""",,,3.8184762001037598,1.011176347732544,-0.8127764463424683,,-0.0062276097014546394,-0.7174835801124573,0.008585996925830841,0.6964946985244751
1690205324791227141,,22310,,1690205324,799865540,"""world""",,,3.8184475898742676,1.01117742061615,-0.8127582669258118,,-0.005105139221996069,-0.7165797352790833,0.009500691667199135,0.6974219083786011
1690205324799647560,,22311,,1690205324,809266215,"""world""",,,3.8184924125671387,1.0111663341522217,-0.812796413898468,,-0.00598281342536211,-0.7173022627830505,0.008792618289589882,0.696681022644043
1690205324807923356,,22312,,1690205324,817030331,"""world""",,,3.8185248374938965,1.0111722946166992,-0.8127484321594238,,-0.005868240259587765,-0.7170352935791016,0.008886781521141529,0.6969555020332336
1690205324816544544,,22313,,1690205324,825336068,"""world""",,,3.8185346126556396,1.0111720561981201,-0.8127439618110657,,-0.006086070090532303,-0.7172125577926636,0.008660070598125458,0.6967741250991821
1690205324824727126,,22314,,1690205324,834125197,"""world""",,,3.8185477256774902,1.011190414428711,-0.8127514123916626,,-0.005966638680547476,-0.7172256708145142,0.008635508827865124,0.696761965751648
1690205324833195270,,22315,,1690205324,842294598,"""world""",,,3.818535327911377,1.0111658573150635,-0.8127500414848328,,-0.006077079102396965,-0.7172434329986572,0.008604471571743488,0.6967431306838989
1690205324841499789,,22316,,1690205324,850635949,"""world""",,,3.818504810333252,1.0111799240112305,-0.8128290772438049,,-0.006069934461265802,-0.7174513339996338,0.008847015909850597,0.696526050567627
1690205324849440760,,22317,,1690205324,858955472,"""world""",,,3.8184919357299805,1.0111703872680664,-0.8128344416618347,,-0.005959449801594019,-0.7173336744308472,0.008729543536901474,0.6966496109962463
1690205324857681948,,22318,,1690205324,867266493,"""world""",,,3.818533420562744,1.0111480951309204,-0.8127748966217041,,-0.005908834282308817,-0.717028021812439,0.008747748099267483,0.69696444272995
1690205324866161392,,22319,,1690205324,875711435,"""world""",,,3.81850266456604,1.0111716985702515,-0.8127726316452026,,-0.005967837758362293,-0.7170632481575012,0.008940243162214756,0.696925163269043
1690205324874312662,,22320,,1690205324,883775128,"""world""",,,3.818427562713623,1.011146068572998,-0.8127892017364502,,-0.0053715636022388935,-0.716881513595581,0.009711396880447865,0.6971067786216736
1690205324882784014,,22321,,1690205324,892302564,"""world""",,,3.8184309005737305,1.0111443996429443,-0.8128255605697632,,-0.005928417667746544,-0.7173838019371033,0.008815102279186249,0.6965972185134888
1690205324890437148,,22322,,1690205324,899901723,"""world""",,,3.8184268474578857,1.0111724138259888,-0.8128058314323425,,-0.00594010716304183,-0.7172487378120422,0.008789673447608948,0.6967365145683289
1690205324899777745,,22323,,1690205324,909367439,"""world""",,,3.8184456825256348,1.0111761093139648,-0.8128034472465515,,-0.006084929686039686,-0.7174575328826904,0.008802263997495174,0.6965200901031494
1690205324907609837,,22324,,1690205324,917019070,"""world""",,,3.818427801132202,1.0111801624298096,-0.8127936720848083,,-0.0059754252433776855,-0.7172406911849976,0.008867834694683552,0.6967434883117676
1690205324915659643,,22325,,1690205324,925273547,"""world""",,,3.818476915359497,1.0111720561981201,-0.8127663135528564,,-0.0058626290410757065,-0.7171006202697754,0.008739003911614418,0.6968902945518494
1690205324923760693,,22326,,1690205324,933390889,"""world""",,,3.818437337875366,1.0111973285675049,-0.8127986192703247,,-0.006138961762189865,-0.717339813709259,0.008830798789858818,0.6966404914855957
1690205324932444588,,22327,,1690205324,942002710,"""world""",,,3.818427562713623,1.011191725730896,-0.8127982020378113,,-0.005960656329989433,-0.7173123359680176,0.008838714100420475,0.6966701745986938
1690205324940846070,,22328,,1690205324,950012386,"""world""",,,3.818364381790161,1.0111631155014038,-0.8127820491790771,,-0.005291841458529234,-0.7168184518814087,0.009536419995129108,0.697174608707428
1690205324949582865,,22329,,1690205324,959167322,"""world""",,,3.8184263706207275,1.0111539363861084,-0.8127820491790771,,-0.005913812201470137,-0.7173192501068115,0.00894944742321968,0.6966620683670044
1690205324957533405,,22330,,1690205324,966906924,"""world""",,,3.818385362625122,1.011159896850586,-0.8127903342247009,,-0.005198679864406586,-0.7167419195175171,0.009759731590747833,0.6972509026527405
1690205324966065034,,22331,,1690205324,975649065,"""world""",,,3.818488359451294,1.0111583471298218,-0.8127894997596741,,-0.005992424674332142,-0.7170771360397339,0.00866490975022316,0.6969141960144043
1690205324974430168,,22332,,1690205324,983976932,"""world""",,,3.818455219268799,1.0111477375030518,-0.8127961754798889,,-0.006056019105017185,-0.7172991037368774,0.00888253003358841,0.6966824531555176
1690205324982697133,,22333,,1690205324,992287147,"""world""",,,3.81844425201416,1.0111501216888428,-0.8127908110618591,,-0.005915563553571701,-0.7173514366149902,0.008870801888406277,0.6966299414634705
1690205324990827569,,22334,,1690205325,424909,"""world""",,,3.8184077739715576,1.011147141456604,-0.8128015398979187,,-0.0050609661266207695,-0.7167849540710449,0.009723380208015442,0.6972081065177917
1690205325000145978,,22335,,1690205325,9703210,"""world""",,,3.818427801132202,1.0111515522003174,-0.8127689361572266,,-0.005033036693930626,-0.7165273427963257,0.009616582654416561,0.6974745392799377
1690205325007387533,,22336,,1690205325,16862461,"""world""",,,3.818505048751831,1.0111768245697021,-0.81279057264328,,-0.0059363082982599735,-0.7170978784561157,0.008908629417419434,0.6968902349472046
1690205325015513314,,22337,,1690205325,25110577,"""world""",,,3.818467378616333,1.0111491680145264,-0.8127502202987671,,-0.005044076591730118,-0.7164834141731262,0.009667561389505863,0.6975189447402954
1690205325029520890,,22338,,1690205325,38940092,"""world""",,,3.8184821605682373,1.011165976524353,-0.8128077983856201,,-0.0060259075835347176,-0.7172905206680298,0.008799114264547825,0.6966925859451294
1690205325032223610,,22339,,1690205325,41840522,"""world""",,,3.8184890747070312,1.0111562013626099,-0.8127897381782532,,-0.00607813335955143,-0.7173649668693542,0.008936351165175438,0.6966137886047363
1690205325040882468,,22340,,1690205325,50050043,"""world""",,,3.818512439727783,1.0111562013626099,-0.8127524852752686,,-0.005848862696439028,-0.7171740531921387,0.008711716160178185,0.6968151926994324
1690205325048564088,,22341,,1690205325,58165183,"""world""",,,3.818500280380249,1.0111422538757324,-0.8128106594085693,,-0.006274350453168154,-0.7174196839332581,0.008796542882919312,0.6965575218200684
1690205325057254931,,22342,,1690205325,66648928,"""world""",,,3.818498134613037,1.0111664533615112,-0.8127598762512207,,-0.006106122862547636,-0.7171246409416199,0.00881493091583252,0.6968623995780945
1690205325065681461,,22343,,1690205325,75120065,"""world""",,,3.8184874057769775,1.011183500289917,-0.812821090221405,,-0.005929292645305395,-0.71729975938797,0.008912840858101845,0.6966824531555176
1690205325074180445,,22344,,1690205325,83594865,"""world""",,,3.8184871673583984,1.0111533403396606,-0.8127511739730835,,-0.0057317884638905525,-0.7170355916023254,0.008800219744443893,0.6969574689865112
1690205325083072784,,22345,,1690205325,92554026,"""world""",,,3.8184475898742676,1.0111552476882935,-0.8127821683883667,,-0.006091395393013954,-0.7173450589179993,0.008759826421737671,0.696636438369751
1690205325090610410,,22346,,1690205325,100156884,"""world""",,,3.8184914588928223,1.011171579360962,-0.8127816319465637,,-0.005809936206787825,-0.7170059084892273,0.008849899284541607,0.6969867944717407
1690205325099285372,,22347,,1690205325,108644873,"""world""",,,3.8185012340545654,1.011169195175171,-0.8127995133399963,,-0.005860094912350178,-0.7170197367668152,0.008676881901919842,0.6969743371009827
1690205325107394910,,22348,,1690205325,116791237,"""world""",,,3.818512439727783,1.0111749172210693,-0.8127763867378235,,-0.005931525025516748,-0.717036783695221,0.008826740086078644,0.6969543099403381
1690205325116908993,,22349,,1690205325,126313458,"""world""",,,3.8184456825256348,1.011151671409607,-0.8128064274787903,,-0.006023483816534281,-0.7172728776931763,0.00883447751402855,0.696710467338562
1690205325124145270,,22350,,1690205325,133594787,"""world""",,,3.8184571266174316,1.0111759901046753,-0.8128310441970825,,-0.0060632796958088875,-0.7174318432807922,0.008452215231955051,0.6965510249137878
1690205325132264942,,22351,,1690205325,141841731,"""world""",,,3.818464517593384,1.0111453533172607,-0.812823474407196,,-0.006112936418503523,-0.7173144221305847,0.00884160865098238,0.6966666579246521
1690205325140520631,,22352,,1690205325,149945047,"""world""",,,3.8184571266174316,1.0111345052719116,-0.812788188457489,,-0.006138085387647152,-0.7172788977622986,0.008919661864638329,0.6967020630836487
1690205325149143354,,22353,,1690205325,158680443,"""world""",,,3.8184525966644287,1.0111453533172607,-0.8128320574760437,,-0.006180722266435623,-0.7173554301261902,0.008747225627303123,0.6966251730918884
1690205325157864244,,22354,,1690205325,167242402,"""world""",,,3.8184244632720947,1.0111428499221802,-0.8127689957618713,,-0.005045498721301556,-0.7165150046348572,0.00970195047557354,0.6974859833717346
1690205325165636946,,22355,,1690205325,174986069,"""world""",,,3.8184401988983154,1.011150598526001,-0.8127956986427307,,-0.005893290974199772,-0.7172231078147888,0.008911783806979656,0.6967616677284241
1690205325174497216,,22356,,1690205325,183719793,"""world""",,,3.818403482437134,1.011164665222168,-0.8127692937850952,,-0.005137565545737743,-0.7165619134902954,0.009607370011508465,0.6974384188652039
1690205325187336019,,22357,,1690205325,196483587,"""world""",,,3.8184640407562256,1.011164903640747,-0.8128088116645813,,-0.0056945160031318665,-0.7172738313674927,0.008986681699752808,0.6967102885246277
1690205325192860248,,22358,,1690205325,202421285,"""world""",,,3.8184781074523926,1.0111675262451172,-0.8127827644348145,,-0.00585772143676877,-0.717104971408844,0.008839531801640987,0.6968845129013062
1690205325199195775,,22359,,1690205325,208802069,"""world""",,,3.8184585571289062,1.0111849308013916,-0.8128364086151123,,-0.006212557200342417,-0.7175193428993225,0.008576329797506332,0.6964581608772278
1690205325211154155,,22360,,1690205325,220721644,"""world""",,,3.8184762001037598,1.011173129081726,-0.8127883076667786,,-0.005869845859706402,-0.7171193361282349,0.008689438924193382,0.6968715786933899
1690205325215394906,,22361,,1690205325,224987873,"""world""",,,3.818466901779175,1.011175274848938,-0.812812864780426,,-0.006087259855121374,-0.7173259854316711,0.008697010576725006,0.6966568231582642
1690205325223799006,,22362,,1690205325,233196630,"""world""",,,3.818491220474243,1.0111624002456665,-0.8127859830856323,,-0.005840612575411797,-0.7170401215553284,0.008660534396767616,0.6969536542892456
1690205325232507781,,22363,,1690205325,241865381,"""world""",,,3.8184664249420166,1.0111557245254517,-0.8128233551979065,,-0.006059800740331411,-0.7173442840576172,0.008749067783355713,0.6966375708580017
1690205325240977030,,22364,,1690205325,250241044,"""world""",,,3.818446397781372,1.011155605316162,-0.8127818703651428,,-0.004975585732609034,-0.7165202498435974,0.009595513343811035,0.6974825859069824
1690205325249701996,,22365,,1690205325,258699945,"""world""",,,3.8184635639190674,1.0111479759216309,-0.8128218650817871,,-0.0059515852481126785,-0.7173032164573669,0.008787780068814754,0.6966803669929504
1690205325257817864,,22366,,1690205325,267108304,"""world""",,,3.8184568881988525,1.0110609531402588,-0.8127154111862183,,-0.007009939290583134,-0.7169634699821472,0.008936768397688866,0.6970182061195374
1690205325265783028,,22367,,1690205325,275211518,"""world""",,,3.818514823913574,1.0111522674560547,-0.8128089904785156,,-0.006002215668559074,-0.7169959545135498,0.008737449534237385,0.6969967484474182
1690205325274029258,,22368,,1690205325,283475857,"""world""",,,3.8184826374053955,1.0111663341522217,-0.8128594160079956,,-0.006032091565430164,-0.7173058390617371,0.008888228796422482,0.696675717830658
1690205325283091979,,22369,,1690205325,292479093,"""world""",,,3.8185036182403564,1.011155128479004,-0.812804102897644,,-0.005882100202143192,-0.7171372175216675,0.008723145350813866,0.6968526244163513
1690205325290579298,,22370,,1690205325,299972366,"""world""",,,3.818488359451294,1.0111631155014038,-0.8128142356872559,,-0.005789708346128464,-0.7170885801315308,0.008660550229251385,0.6969042420387268
1690205325301503474,,22371,,1690205325,310726424,"""world""",,,3.8184926509857178,1.0111651420593262,-0.8128151297569275,,-0.005837651900947094,-0.7171080112457275,0.008606739342212677,0.6968845129013062
1690205325307873736,,22372,,1690205325,317113872,"""world""",,,3.8184492588043213,1.0111768245697021,-0.8128240704536438,,-0.006162028294056654,-0.7172982692718506,0.008858478628098965,0.6966826915740967
1690205325315439182,,22373,,1690205325,325007381,"""world""",,,3.8184962272644043,1.0111794471740723,-0.8127782344818115,,-0.005991279613226652,-0.7170073986053467,0.008739660494029522,0.696985125541687
1690205325323990242,,22374,,1690205325,333469146,"""world""",,,3.8184022903442383,1.0111793279647827,-0.8128342628479004,,-0.0053532784804701805,-0.7166516184806824,0.009620771743357182,0.6973444223403931
1690205325332187134,,22375,,1690205325,341787695,"""world""",,,3.818467140197754,1.0111674070358276,-0.8128415942192078,,-0.005975107196718454,-0.717297375202179,0.008836785331368446,0.6966856122016907
1690205325341110089,,22376,,1690205325,350345891,"""world""",,,3.818443775177002,1.011109709739685,-0.8129091262817383,,-0.0062470040284097195,-0.717370331287384,0.008937817998230457,0.6966066956520081
1690205325348865203,,22377,,1690205325,358323294,"""world""",,,3.8184328079223633,1.011048674583435,-0.8129833936691284,,-0.005978892557322979,-0.7172368764877319,0.008819580078125,0.6967479586601257
1690205325357379919,,22378,,1690205325,366768621,"""world""",,,3.8183655738830566,1.011057734489441,-0.8129160404205322,,-0.005263335537165403,-0.7167719006538391,0.009898098185658455,0.6972176432609558
1690205325366233576,,22379,,1690205325,375595405,"""world""",,,3.818434238433838,1.0110394954681396,-0.8129491806030273,,-0.006160770542919636,-0.7174468040466309,0.008884403854608536,0.6965294480323792
1690205325375252569,,22380,,1690205325,383932944,"""world""",,,3.8184542655944824,1.0109666585922241,-0.8130009770393372,,-0.006285012699663639,-0.7173808813095093,0.008894378319382668,0.6965960264205933
1690205325383119637,,22381,,1690205325,392652438,"""world""",,,3.8183681964874268,1.0109388828277588,-0.8130376935005188,,-0.005325323436409235,-0.7168365716934204,0.009531037881970406,0.6971558332443237
1690205325391722106,,22382,,1690205325,401268381,"""world""",,,3.818439245223999,1.0109338760375977,-0.8130025863647461,,-0.005971686448901892,-0.7173015475273132,0.00893004797399044,0.6966800093650818
1690205325400143633,,22383,,1690205325,409507425,"""world""",,,3.8184471130371094,1.0109567642211914,-0.8129848837852478,,-0.006342054344713688,-0.7173850536346436,0.008889113552868366,0.6965913772583008
1690205325410343451,,22384,,1690205325,419530624,"""world""",,,3.818458080291748,1.010964274406433,-0.8130182027816772,,-0.006158346775919199,-0.7174041867256165,0.008798821829259396,0.6965744495391846
1690205325463726008,,22385,,1690205325,473323630,"""world""",,,3.8184666633605957,1.0109800100326538,-0.8130404949188232,,-0.00620182603597641,-0.7173145413398743,0.009009674191474915,0.6966636776924133
1690205325466663830,,22386,,1690205325,474999892,"""world""",,,3.8184661865234375,1.0110214948654175,-0.8130171298980713,,-0.005932793486863375,-0.717431902885437,0.008779367431998253,0.6965481638908386
1690205325467368727,,22387,,1690205325,475035802,"""world""",,,3.818481922149658,1.0110578536987305,-0.8129793405532837,,-0.006107193883508444,-0.717294454574585,0.008906391449272633,0.6966865062713623
1690205325467375255,,22388,,1690205325,475066235,"""world""",,,3.81847882270813,1.0110318660736084,-0.8130186200141907,,-0.006184607744216919,-0.7174383401870728,0.0088111637160182,0.6965388059616089
1690205325467410472,,22389,,1690205325,475758023,"""world""",,,3.818474054336548,1.0110238790512085,-0.8129737377166748,,-0.006350093521177769,-0.7174228429794312,0.00886523723602295,0.696552574634552
1690205325467417460,,22390,,1690205325,475793816,"""world""",,,3.8184781074523926,1.01103937625885,-0.8129526972770691,,-0.006142875179648399,-0.7172653079032898,0.008967135101556778,0.6967154741287231
1690205325467921132,,22391,,1690205325,476429493,"""world""",,,3.8184545040130615,1.0110151767730713,-0.8129394054412842,,-0.006055939011275768,-0.7173107266426086,0.008978594094514847,0.696669340133667
1690205325476260146,,22392,,1690205325,485006929,"""world""",,,3.818389892578125,1.0110074281692505,-0.8129549026489258,,-0.00515966210514307,-0.7167509198188782,0.00978390034288168,0.6972416043281555
1690205325485621755,,22393,,1690205325,495171036,"""world""",,,3.818455696105957,1.011025071144104,-0.8129485845565796,,-0.00594878988340497,-0.71720290184021,0.00886914599686861,0.696782648563385
1690205325493610608,,22394,,1690205325,503177763,"""world""",,,3.8184409141540527,1.011054277420044,-0.8129401206970215,,-0.00622940668836236,-0.717271089553833,0.009000361897051334,0.6967083215713501
1690205325501299287,,22395,,1690205325,510790366,"""world""",,,3.818451166152954,1.0110490322113037,-0.8129672408103943,,-0.00645283330231905,-0.7173542380332947,0.00891300942748785,0.6966216564178467
1690205325509399355,,22396,,1690205325,518743019,"""world""",,,3.8184542655944824,1.0110243558883667,-0.8129836916923523,,-0.006019889377057552,-0.7173539400100708,0.008755594491958618,0.6966279745101929
1690205325515905876,,22397,,1690205325,525337618,"""world""",,,3.8184642791748047,1.0110214948654175,-0.8129919171333313,,-0.006157502997666597,-0.7173385620117188,0.008692414499819279,0.6966433525085449
1690205325523906777,,22398,,1690205325,533456668,"""world""",,,3.8184611797332764,1.0110384225845337,-0.8130236268043518,,-0.005957752000540495,-0.7172915935516357,0.0087992362678051,0.6966921091079712
1690205325532805147,,22399,,1690205325,542383906,"""world""",,,3.8184566497802734,1.011025071144104,-0.8129935264587402,,-0.006111509632319212,-0.7173030972480774,0.008743678219616413,0.6966795921325684
1690205325543717477,,22400,,1690205325,553248875,"""world""",,,3.8184146881103516,1.0109717845916748,-0.8130420446395874,,-0.005347793456166983,-0.7168876528739929,0.009670725092291832,0.6971011757850647
1690205325551328938,,22401,,1690205325,560739442,"""world""",,,3.8184244632720947,1.010894536972046,-0.8128921985626221,,-0.007301380392163992,-0.7173552513122559,0.009148315526545048,0.696609377861023
