rosbagTimestamp,header,seq,stamp,secs,nsecs,frame_id,pose,position,x,y,z,orientation,ux,uy,uz,w
1.69453705878762E+018,,26558,,1694537060,138738731,"""world""",,,7.92943286895752,0.886409759521484,-1.78699517250061,,-0.719956457614899,-0.625212609767914,-0.114848971366882,-0.278535038232803
1.69453705879394E+018,,26559,,1694537060,145319863,"""world""",,,7.92944192886353,0.886421203613281,-1.78698718547821,,-0.720029473304749,-0.625048398971558,-0.115003116428852,-0.278651148080826
1.69453705880303E+018,,26560,,1694537060,154170483,"""world""",,,7.92941474914551,0.886439740657806,-1.7869656085968,,-0.719979345798492,-0.625170767307282,-0.11484082788229,-0.278573036193848
1.69453705881172E+018,,26561,,1694537060,162372125,"""world""",,,7.92942380905151,0.886437475681305,-1.78698480129242,,-0.720038712024689,-0.625259101390839,-0.11469466984272,-0.278281182050705
1.6945370588197E+018,,26562,,1694537060,170458018,"""world""",,,7.92942619323731,0.886450290679932,-1.78696632385254,,-0.720033228397369,-0.625252366065979,-0.114637531340122,-0.278334259986877
1.69453705882772E+018,,26563,,1694537060,178835445,"""world""",,,7.92938041687012,0.886459469795227,-1.78693234920502,,-0.719959676265717,-0.625214457511902,-0.114917628467083,-0.278494209051132
1.69453705883623E+018,,26564,,1694537060,187417483,"""world""",,,7.92942047119141,0.886414647102356,-1.78694725036621,,-0.719926834106445,-0.625211477279663,-0.11510942876339,-0.278506428003311
1.69453705884502E+018,,26565,,1694537060,195822586,"""world""",,,7.92940425872803,0.886410534381866,-1.78691840171814,,-0.719901204109192,-0.625254809856415,-0.114860542118549,-0.278578162193298
1.69453705885291E+018,,26566,,1694537060,204013787,"""world""",,,7.92942142486572,0.886361241340637,-1.78690922260284,,-0.720013856887817,-0.625309765338898,-0.114610306918621,-0.278266698122025
1.69453705886105E+018,,26567,,1694537060,212320703,"""world""",,,7.9294605255127,0.886311948299408,-1.78690600395203,,-0.720073401927948,-0.625250160694122,-0.11456897854805,-0.278263479471207
1.69453705886991E+018,,26568,,1694537060,221175362,"""world""",,,7.92949962615967,0.886268496513367,-1.78689324855804,,-0.72006767988205,-0.625164985656738,-0.114607371389866,-0.278453767299652
1.69453705887793E+018,,26569,,1694537060,229182544,"""world""",,,7.92954874038696,0.886207044124603,-1.78691422939301,,-0.720111846923828,-0.625026524066925,-0.114825278520584,-0.278560400009155
1.69453705888623E+018,,26570,,1694537060,237394470,"""world""",,,7.9296178817749,0.886158287525177,-1.78689765930176,,-0.720164716243744,-0.624848008155823,-0.115178681910038,-0.278678566217422
1.6945370588944E+018,,26571,,1694537060,245559412,"""world""",,,7.92961597442627,0.886146068572998,-1.78691256046295,,-0.720176100730896,-0.62510472536087,-0.114487878978252,-0.278357744216919
1.69453705890315E+018,,26572,,1694537060,254367911,"""world""",,,7.92964792251587,0.886131644248962,-1.78693127632141,,-0.720184028148651,-0.624998569488525,-0.114758223295212,-0.278464317321777
1.69453705891186E+018,,26573,,1694537060,263111328,"""world""",,,7.92966794967651,0.88611501455307,-1.78697335720062,,-0.720225512981415,-0.625071048736572,-0.11438362300396,-0.278348505496979
1.69453705892005E+018,,26574,,1694537060,271348305,"""world""",,,7.92969512939453,0.886119902133942,-1.78698074817657,,-0.720171332359314,-0.624951064586639,-0.114833399653435,-0.278572738170624
1.69453705892779E+018,,26575,,1694537060,279061462,"""world""",,,7.9296760559082,0.886118292808533,-1.78700232505798,,-0.720158755779266,-0.624960541725159,-0.114823698997498,-0.278588026762009
1.69453705893823E+018,,26576,,1694537060,287519363,"""world""",,,7.92963838577271,0.886147558689117,-1.78704714775085,,-0.720167756080627,-0.625143468379974,-0.114381402730942,-0.278336018323898
1.69453705894463E+018,,26577,,1694537060,295780893,"""world""",,,7.92965650558472,0.886147737503052,-1.7870934009552,,-0.720150589942932,-0.625161051750183,-0.114448085427284,-0.278313845396042
1.69453705895292E+018,,26578,,1694537060,304149025,"""world""",,,7.92958354949951,0.886174440383911,-1.78711104393005,,-0.720117032527924,-0.625173449516296,-0.114459201693535,-0.278368264436722
1.69453705896124E+018,,26579,,1694537060,312534646,"""world""",,,7.92960262298584,0.886183381080627,-1.78716802597046,,-0.720103144645691,-0.625216066837311,-0.114348478615284,-0.278353631496429
1.69453705896953E+018,,26580,,1694537060,320775303,"""world""",,,7.92958498001099,0.886201798915863,-1.78717255592346,,-0.720166206359863,-0.625101208686829,-0.114462666213512,-0.278401613235474
1.69453705897794E+018,,26581,,1694537060,329087623,"""world""",,,7.92957925796509,0.886219441890717,-1.78720128536224,,-0.720031559467316,-0.625112354755402,-0.114837616682053,-0.278570473194122
1.69453705898615E+018,,26582,,1694537060,337434563,"""world""",,,7.92953586578369,0.886221647262573,-1.78718388080597,,-0.720058441162109,-0.625004649162293,-0.115064114332199,-0.278649061918259
1.69453705899474E+018,,26583,,1694537060,345852078,"""world""",,,7.92955732345581,0.886210680007935,-1.78719973564148,,-0.720067322254181,-0.625147342681885,-0.114639431238174,-0.27848082780838
1.69453705900349E+018,,26584,,1694537060,354244504,"""world""",,,7.92956495285034,0.886199057102203,-1.78720223903656,,-0.720085024833679,-0.625185549259186,-0.114441856741905,-0.278430849313736
1.69453705901262E+018,,26585,,1694537060,363853480,"""world""",,,7.92957925796509,0.886216700077057,-1.7872006893158,,-0.720062136650085,-0.625345885753632,-0.1142897605896,-0.27819237112999
1.69453705902E+018,,26586,,1694537060,371203537,"""world""",,,7.92960643768311,0.886198878288269,-1.78718328475952,,-0.720077037811279,-0.625192046165466,-0.114558488130569,-0.278388947248459
1.69453705902766E+018,,26587,,1694537060,379016155,"""world""",,,7.92960977554321,0.88618266582489,-1.78715491294861,,-0.720143020153046,-0.625231504440308,-0.114341363310814,-0.278219044208527
1.69453705903637E+018,,26588,,1694537060,387329906,"""world""",,,7.92963361740112,0.886166036128998,-1.78711879253387,,-0.72015768289566,-0.625001728534699,-0.114781774580479,-0.278515636920929
1.69453705904441E+018,,26589,,1694537060,395709818,"""world""",,,7.92966938018799,0.886136412620544,-1.78709602355957,,-0.720210671424866,-0.62497740983963,-0.11468555778265,-0.278472900390625
1.69453705905299E+018,,26590,,1694537060,404305047,"""world""",,,7.92966508865356,0.886108338832855,-1.78706192970276,,-0.720174729824066,-0.62506228685379,-0.114487610757351,-0.278456628322601
1.6945370590611E+018,,26591,,1694537060,412355137,"""world""",,,7.92966651916504,0.8861083984375,-1.78702700138092,,-0.720156848430634,-0.624839603900909,-0.115091979503632,-0.27875354886055
1.69453705906937E+018,,26592,,1694537060,420715231,"""world""",,,7.92969179153442,0.886107265949249,-1.78699278831482,,-0.720222294330597,-0.624885499477387,-0.11489512771368,-0.278562545776367
1.69453705907765E+018,,26593,,1694537060,428867166,"""world""",,,7.92968988418579,0.886103987693787,-1.7869861125946,,-0.720218539237976,-0.624989092350006,-0.114609941840172,-0.278457283973694
1.69453705908592E+018,,26594,,1694537060,437219974,"""world""",,,7.92969083786011,0.886074900627136,-1.78692841529846,,-0.720247089862824,-0.624822199344635,-0.114890038967133,-0.278642535209656
1.69453705909454E+018,,26595,,1694537060,445852786,"""world""",,,7.92967844009399,0.886088907718658,-1.78691947460175,,-0.720255136489868,-0.62472665309906,-0.115140847861767,-0.278732568025589
1.69453705910349E+018,,26596,,1694537060,454235064,"""world""",,,7.9296932220459,0.886094331741333,-1.78691744804382,,-0.720255076885223,-0.624765932559967,-0.115021474659443,-0.278693735599518
1.69453705911118E+018,,26597,,1694537060,462191495,"""world""",,,7.92971801757813,0.886071562767029,-1.7869873046875,,-0.720229148864746,-0.624924898147583,-0.114788562059402,-0.278500616550446
1.69453705912E+018,,26598,,1694537060,470656569,"""world""",,,7.92963743209839,0.886141896247864,-1.78692734241486,,-0.720163464546204,-0.624918520450592,-0.114940263330936,-0.278622210025787
1.69453705912846E+018,,26599,,1694537060,479416865,"""world""",,,7.92965269088745,0.886146783828735,-1.78696155548096,,-0.720120906829834,-0.624835073947907,-0.11530938744545,-0.27876678109169
1.69453705913653E+018,,26600,,1694537060,487535736,"""world""",,,7.92965030670166,0.886186957359314,-1.78694796562195,,-0.72011935710907,-0.624931871891022,-0.115025237202644,-0.278671026229858
1.69453705914434E+018,,26601,,1694537060,495584029,"""world""",,,7.92961025238037,0.886162281036377,-1.78700864315033,,-0.720146000385284,-0.624994516372681,-0.114811807870865,-0.278549641370773
1.69453705915419E+018,,26602,,1694537060,505351622,"""world""",,,7.92961025238037,0.886182963848114,-1.78701198101044,,-0.720105230808258,-0.625120401382446,-0.11468343436718,-0.278425335884094
1.69453705916131E+018,,26603,,1694537060,512149011,"""world""",,,7.92959547042847,0.886173009872437,-1.78703165054321,,-0.720082521438599,-0.625043869018555,-0.114947244524956,-0.278547048568726
1.69453705916959E+018,,26604,,1694537060,520739057,"""world""",,,7.92963600158691,0.886166751384735,-1.78708207607269,,-0.720129251480103,-0.625097393989563,-0.114513881504536,-0.278484851121902
1.69453705917775E+018,,26605,,1694537060,529065472,"""world""",,,7.92964458465576,0.886166095733643,-1.78711104393005,,-0.720151305198669,-0.625124871730804,-0.114520825445652,-0.278363049030304
1.69453705918623E+018,,26606,,1694537060,537274935,"""world""",,,7.92966794967651,0.886141896247864,-1.78711402416229,,-0.720187127590179,-0.624949336051941,-0.114894330501556,-0.278510719537735
1.69453705919413E+018,,26607,,1694537060,545502978,"""world""",,,7.92966890335083,0.886122941970825,-1.78713154792786,,-0.720171689987183,-0.62515389919281,-0.114264756441116,-0.278350293636322
1.69453705920227E+018,,26608,,1694537060,553621317,"""world""",,,7.92970561981201,0.886095643043518,-1.78715264797211,,-0.720258712768555,-0.624979972839356,-0.114587627351284,-0.278383076190948
1.69453705921251E+018,,26609,,1694537060,563718010,"""world""",,,7.92972660064697,0.886079370975494,-1.78715860843658,,-0.720179617404938,-0.625086784362793,-0.114513643085957,-0.278378307819366
1.69453705921967E+018,,26610,,1694537060,570878180,"""world""",,,7.92970514297485,0.88608592748642,-1.78714787960053,,-0.720231473445892,-0.62500125169754,-0.114566065371037,-0.278414696455002
1.69453705922813E+018,,26611,,1694537060,579121976,"""world""",,,7.92970991134644,0.886085569858551,-1.78713190555573,,-0.720221757888794,-0.624911785125732,-0.114769220352173,-0.278557002544403
1.69453705923617E+018,,26612,,1694537060,587356690,"""world""",,,7.92973899841309,0.886082530021668,-1.78712666034699,,-0.720204710960388,-0.624834537506104,-0.114871710538864,-0.278731912374496
1.6945370592446E+018,,26613,,1694537060,595482025,"""world""",,,7.92972373962402,0.886083841323853,-1.78712546825409,,-0.720255374908447,-0.624889969825745,-0.11479676514864,-0.278507709503174
1.69453705925264E+018,,26614,,1694537060,603801919,"""world""",,,7.92974233627319,0.88606870174408,-1.78714966773987,,-0.720285296440125,-0.625098824501038,-0.114064857363701,-0.27826201915741
1.69453705926088E+018,,26615,,1694537060,612169555,"""world""",,,7.92975759506226,0.886079907417297,-1.78715920448303,,-0.72025853395462,-0.624953329563141,-0.11443804949522,-0.278504729270935
1.69453705926992E+018,,26616,,1694537060,621269513,"""world""",,,7.92972564697266,0.886081993579865,-1.78712046146393,,-0.720156908035278,-0.624787271022797,-0.115130238234997,-0.278854668140411
1.69453705927798E+018,,26617,,1694537060,629041149,"""world""",,,7.92970132827759,0.886123359203339,-1.78710174560547,,-0.720132887363434,-0.624994874000549,-0.114771984517574,-0.278599143028259
1.69453705928613E+018,,26618,,1694537060,637370612,"""world""",,,7.92968654632568,0.886133790016174,-1.78709864616394,,-0.720200181007385,-0.624962985515595,-0.11471751332283,-0.278518974781036
1.69453705929464E+018,,26619,,1694537060,645779474,"""world""",,,7.92967700958252,0.88614946603775,-1.78708064556122,,-0.720185458660126,-0.624947428703308,-0.114665277302265,-0.278613656759262
1.69453705930235E+018,,26620,,1694537060,653662923,"""world""",,,7.92967033386231,0.886163175106049,-1.78706073760986,,-0.720179736614227,-0.625013530254364,-0.114496842026711,-0.278549432754517
1.69453705931124E+018,,26621,,1694537060,662289053,"""world""",,,7.92969703674316,0.886152505874634,-1.78704595565796,,-0.720140099525452,-0.625016450881958,-0.114685460925102,-0.278567850589752
1.69453705931988E+018,,26622,,1694537060,671204859,"""world""",,,7.92962598800659,0.886168837547302,-1.78701555728912,,-0.720171988010407,-0.625062048435211,-0.114561401307583,-0.278433978557587
1.69453705932794E+018,,26623,,1694537060,679311776,"""world""",,,7.92962598800659,0.886144518852234,-1.78701019287109,,-0.720166504383087,-0.625032007694244,-0.114741198718548,-0.278441429138184
1.69453705933759E+018,,26624,,1694537060,687557501,"""world""",,,7.929612159729,0.88615345954895,-1.7870078086853,,-0.720172166824341,-0.625007748603821,-0.114729054272175,-0.278486281633377
1.69453705934433E+018,,26625,,1694537060,695618937,"""world""",,,7.92961263656616,0.886162757873535,-1.78704249858856,,-0.720171630382538,-0.625034630298615,-0.114787138998508,-0.278403341770172
1.69453705935303E+018,,26626,,1694537060,704234557,"""world""",,,7.92964792251587,0.88617330789566,-1.78711605072021,,-0.720090389251709,-0.625089704990387,-0.114520460367203,-0.278599888086319
1.69453705936126E+018,,26627,,1694537060,712441659,"""world""",,,7.9296441078186,0.886186718940735,-1.78715777397156,,-0.720144510269165,-0.624994933605194,-0.114459820091724,-0.278697341680527
1.69453705936969E+018,,26628,,1694537060,720962696,"""world""",,,7.92970037460327,0.886139631271362,-1.7871527671814,,-0.720209121704102,-0.624801456928253,-0.114812254905701,-0.278819143772125
1.69453705937808E+018,,26629,,1694537060,729134478,"""world""",,,7.92970752716064,0.886108934879303,-1.78712201118469,,-0.720206379890442,-0.624967932701111,-0.114668436348438,-0.278512418270111
1.69453705938798E+018,,26630,,1694537060,737356798,"""world""",,,7.92969036102295,0.886111974716187,-1.78709030151367,,-0.720257341861725,-0.624987006187439,-0.11445115506649,-0.278426945209503
1.69453705939475E+018,,26631,,1694537060,745964479,"""world""",,,7.92965078353882,0.886119842529297,-1.78711771965027,,-0.720194041728973,-0.625086009502411,-0.114583730697632,-0.278313934803009
1.6945370594037E+018,,26632,,1694537060,754915563,"""world""",,,7.92968845367432,0.886099755764008,-1.78719413280487,,-0.720070064067841,-0.625191748142242,-0.114410281181335,-0.278468400239944
1.69453705941142E+018,,26633,,1694537060,762367619,"""world""",,,7.92967700958252,0.886110484600067,-1.78728318214417,,-0.720105111598969,-0.625081896781921,-0.114509008824825,-0.278583824634552
1.69453705942091E+018,,26634,,1694537060,771331376,"""world""",,,7.92970561981201,0.886112153530121,-1.78733098506928,,-0.720091640949249,-0.624983489513397,-0.114678926765919,-0.278769701719284
1.69453705942816E+018,,26635,,1694537060,778957150,"""world""",,,7.92974853515625,0.886101543903351,-1.7873729467392,,-0.720199644565582,-0.625064253807068,-0.114383481442928,-0.278430670499802
1.69453705943604E+018,,26636,,1694537060,787357742,"""world""",,,7.9297080039978,0.886123538017273,-1.78734743595123,,-0.720242917537689,-0.624983727931976,-0.114423975348473,-0.278482854366302
1.69453705944597E+018,,26637,,1694537060,795826957,"""world""",,,7.92969751358032,0.886127531528473,-1.787353515625,,-0.720224499702454,-0.624930918216705,-0.114625915884972,-0.278565853834152
1.69453705945347E+018,,26638,,1694537060,804062757,"""world""",,,7.92965698242188,0.886165916919708,-1.78736996650696,,-0.720121800899506,-0.625107765197754,-0.114478178322315,-0.278495490550995
1.69453705946188E+018,,26639,,1694537060,812965774,"""world""",,,7.92969465255737,0.886151850223541,-1.7874608039856,,-0.720104336738586,-0.625147879123688,-0.11432658135891,-0.278512597084045
1.69453705946957E+018,,26640,,1694537060,820704752,"""world""",,,7.92964029312134,0.886169195175171,-1.78744316101074,,-0.720119178295136,-0.624935626983643,-0.114810690283775,-0.278751343488693
1.69453705947781E+018,,26641,,1694537060,829038869,"""world""",,,7.92970514297485,0.886164486408234,-1.78745365142822,,-0.72007542848587,-0.625137507915497,-0.114329263567925,-0.278609603643417
1.69453705948618E+018,,26642,,1694537060,837400716,"""world""",,,7.92967939376831,0.886177122592926,-1.78742063045502,,-0.72014582157135,-0.625109493732452,-0.114399991929531,-0.278461396694183
1.69453705949459E+018,,26643,,1694537060,845756475,"""world""",,,7.92966413497925,0.886166751384735,-1.78740334510803,,-0.720117926597595,-0.625149607658386,-0.114313237369061,-0.278479129076004
1.69453705950394E+018,,26644,,1694537060,855242870,"""world""",,,7.92965936660767,0.886155128479004,-1.78737854957581,,-0.720048725605011,-0.625128269195557,-0.114430963993073,-0.278657734394073
1.69453705951135E+018,,26645,,1694537060,862549365,"""world""",,,7.92967939376831,0.886161029338837,-1.78735291957855,,-0.720137536525726,-0.62492173910141,-0.11490635573864,-0.278695851564407
1.69453705952003E+018,,26646,,1694537060,871342954,"""world""",,,7.92969036102295,0.886152803897858,-1.78734219074249,,-0.720105469226837,-0.62497216463089,-0.114729128777981,-0.278738617897034
1.69453705952767E+018,,26647,,1694537060,878978499,"""world""",,,7.92971038818359,0.886131882667542,-1.78734004497528,,-0.720134973526001,-0.625106275081635,-0.114216089248657,-0.278572291135788
1.69453705953598E+018,,26648,,1694537060,887325160,"""world""",,,7.92970323562622,0.886128664016724,-1.78728139400482,,-0.720117568969727,-0.625057280063629,-0.114407546818256,-0.278648495674133
1.69453705954442E+018,,26649,,1694537060,895465959,"""world""",,,7.92973232269287,0.88611102104187,-1.78727412223816,,-0.720225632190704,-0.625040590763092,-0.114254422485828,-0.278469443321228
1.6945370595541E+018,,26650,,1694537060,904826606,"""world""",,,7.92969465255737,0.886128544807434,-1.7871915102005,,-0.720221877098084,-0.624976992607117,-0.114501871168613,-0.278520435094833
1.6945370595613E+018,,26651,,1694537060,912317102,"""world""",,,7.92970180511475,0.886129558086395,-1.78718209266663,,-0.720158815383911,-0.625103890895844,-0.114473447203636,-0.278410315513611
1.69453705956949E+018,,26652,,1694537060,920273505,"""world""",,,7.92969465255737,0.886121273040772,-1.78717243671417,,-0.72018963098526,-0.624910831451416,-0.114733032882214,-0.278656989336014
1.69453705957754E+018,,26653,,1694537060,928794548,"""world""",,,7.92969131469727,0.886114060878754,-1.78714168071747,,-0.720194160938263,-0.62503445148468,-0.11433282494545,-0.278532326221466
1.69453705958601E+018,,26654,,1694537060,937155986,"""world""",,,7.92972612380981,0.88612824678421,-1.78714537620544,,-0.72016716003418,-0.625083029270172,-0.114291861653328,-0.27851003408432
1.69453705959512E+018,,26655,,1694537060,946390832,"""world""",,,7.92971420288086,0.886114537715912,-1.78715980052948,,-0.720205903053284,-0.625001490116119,-0.114390902221203,-0.278552353382111
1.69453705960235E+018,,26656,,1694537060,953739317,"""world""",,,7.92971038818359,0.886131644248962,-1.78716814517975,,-0.72019636631012,-0.625009775161743,-0.11444566398859,-0.278536051511765
1.69453705961062E+018,,26657,,1694537060,961752850,"""world""",,,7.92968082427979,0.886139094829559,-1.78716051578522,,-0.720209181308746,-0.624984920024872,-0.114579014480114,-0.278503805398941
1.6945370596194E+018,,26658,,1694537060,970253656,"""world""",,,7.92966747283936,0.886165857315064,-1.78716015815735,,-0.720075905323029,-0.62522280216217,-0.114368177950382,-0.27840119600296
1.69453705962747E+018,,26659,,1694537060,978625443,"""world""",,,7.92963886260986,0.886168241500855,-1.78716087341309,,-0.720146834850311,-0.62496817111969,-0.114735931158066,-0.278637588024139
1.69453705963584E+018,,26660,,1694537060,987137081,"""world""",,,7.92963981628418,0.886165082454681,-1.78719305992126,,-0.720080375671387,-0.625096380710602,-0.114635817706585,-0.278563052415848
1.69453705964472E+018,,26661,,1694537060,995742641,"""world""",,,7.92966747283936,0.886157512664795,-1.787229180336,,-0.720154643058777,-0.624968111515045,-0.114818274974823,-0.278583884239197
1.69453705965395E+018,,26662,,1694537061,3843798,"""world""",,,7.92967319488525,0.886168360710144,-1.78725242614746,,-0.720196664333344,-0.624913156032562,-0.114777736365795,-0.278615087270737
1.69453705966331E+018,,26663,,1694537061,14140333,"""world""",,,7.92966175079346,0.886173486709595,-1.78723764419556,,-0.720197916030884,-0.62495094537735,-0.114760808646679,-0.278534263372421
1.69453705966893E+018,,26664,,1694537061,20294572,"""world""",,,7.92970514297485,0.886155188083649,-1.7872896194458,,-0.720064103603363,-0.624987483024597,-0.114917479455471,-0.278733551502228
1.69453705967716E+018,,26665,,1694537061,28486436,"""world""",,,7.92969417572022,0.88615745306015,-1.78731596469879,,-0.720127463340759,-0.625059604644775,-0.114589862525463,-0.278542876243591
1.69453705968648E+018,,26666,,1694537061,36873961,"""world""",,,7.92971277236939,0.886142909526825,-1.78734135627747,,-0.720150887966156,-0.625101327896118,-0.114263117313385,-0.278523057699203
1.69453705969402E+018,,26667,,1694537061,45380531,"""world""",,,7.92969179153442,0.886135995388031,-1.78732883930206,,-0.72020024061203,-0.624995708465576,-0.114624612033367,-0.278483957052231
1.69453705970246E+018,,26668,,1694537061,53742498,"""world""",,,7.92966461181641,0.886135578155518,-1.78731262683868,,-0.720167219638824,-0.62502646446228,-0.114561513066292,-0.27852600812912
1.69453705971262E+018,,26669,,1694537061,62786564,"""world""",,,7.92970514297485,0.886142373085022,-1.78730773925781,,-0.720136284828186,-0.624998927116394,-0.114739313721657,-0.278594762086868
1.69453705971935E+018,,26670,,1694537061,70428118,"""world""",,,7.92968845367432,0.88615095615387,-1.78727746009827,,-0.72019624710083,-0.624936759471893,-0.114635020494461,-0.278622210025787
1.69453705972742E+018,,26671,,1694537061,78776992,"""world""",,,7.92973470687866,0.886118352413178,-1.78731501102448,,-0.72013533115387,-0.625026702880859,-0.114651307463646,-0.278571099042892
1.69453705973576E+018,,26672,,1694537061,87097916,"""world""",,,7.92966556549072,0.886141657829285,-1.78723955154419,,-0.720073282718658,-0.625080764293671,-0.114639736711979,-0.278614908456802
1.69453705974422E+018,,26673,,1694537061,95451845,"""world""",,,7.92966794967651,0.886144280433655,-1.78723835945129,,-0.720117747783661,-0.624958157539368,-0.114800840616226,-0.278708666563034
1.69453705975348E+018,,26674,,1694537061,103965121,"""world""",,,7.92972469329834,0.886126756668091,-1.78727161884308,,-0.720197081565857,-0.624967813491821,-0.114466242492199,-0.278619676828384
1.69453705976101E+018,,26675,,1694537061,112295161,"""world""",,,7.92970848083496,0.886135816574097,-1.78721964359283,,-0.720213949680328,-0.624979436397553,-0.114577956497669,-0.278504073619843
1.69453705976936E+018,,26676,,1694537061,120438561,"""world""",,,7.92968988418579,0.886141002178192,-1.78715205192566,,-0.720162928104401,-0.624785006046295,-0.115161500871181,-0.278831630945206
1.69453705977838E+018,,26677,,1694537061,129681553,"""world""",,,7.92965698242188,0.886168837547302,-1.7871356010437,,-0.72019374370575,-0.624892890453339,-0.114882983267307,-0.27862474322319
1.6945370597861E+018,,26678,,1694537061,137140606,"""world""",,,7.9296407699585,0.886184394359589,-1.78709518909454,,-0.720129132270813,-0.62497889995575,-0.114672899246216,-0.278685569763184
1.69453705979498E+018,,26679,,1694537061,146202813,"""world""",,,7.9296727180481,0.886187791824341,-1.7871208190918,,-0.720119416713715,-0.625156760215759,-0.114406019449234,-0.278421193361282
1.69453705980237E+018,,26680,,1694537061,153719765,"""world""",,,7.92966842651367,0.886210501194,-1.78705036640167,,-0.720174670219421,-0.62482887506485,-0.115047194063663,-0.278749793767929
1.69453705981104E+018,,26681,,1694537061,162386913,"""world""",,,7.92964029312134,0.886258363723755,-1.7870454788208,,-0.720137476921082,-0.625218868255615,-0.114164091646671,-0.278334379196167
1.69453705981943E+018,,26682,,1694537061,170679974,"""world""",,,7.92967033386231,0.88627427816391,-1.78704762458801,,-0.720108330249786,-0.625106751918793,-0.114574231207371,-0.278492897748947
1.69453705982744E+018,,26683,,1694537061,178608806,"""world""",,,7.9296293258667,0.886344909667969,-1.78703391551971,,-0.720045447349548,-0.625108957290649,-0.114763341844082,-0.278572887182236
1.69453705983584E+018,,26684,,1694537061,187098069,"""world""",,,7.92958879470825,0.886387884616852,-1.78701961040497,,-0.720025658607483,-0.625158905982971,-0.114665150642395,-0.278552174568176
1.69453705984433E+018,,26685,,1694537061,195674776,"""world""",,,7.92961263656616,0.886426687240601,-1.78699910640717,,-0.719953656196594,-0.625065684318543,-0.115132704377174,-0.278754711151123
1.69453705985301E+018,,26686,,1694537061,204138112,"""world""",,,7.92957639694214,0.886448740959168,-1.7870044708252,,-0.719915509223938,-0.625012159347534,-0.115384124219418,-0.278869301080704
1.69453705986108E+018,,26687,,1694537061,212425712,"""world""",,,7.92957830429077,0.886470556259155,-1.78703248500824,,-0.720002770423889,-0.625291109085083,-0.11447898298502,-0.278391242027283
1.69453705986912E+018,,26688,,1694537061,220392996,"""world""",,,7.92957544326782,0.886486768722534,-1.78702235221863,,-0.719970285892487,-0.625110328197479,-0.11495615541935,-0.278684377670288
1.6945370598777E+018,,26689,,1694537061,229069607,"""world""",,,7.92959594726563,0.886468708515167,-1.78705978393555,,-0.71996009349823,-0.625274479389191,-0.114646688103676,-0.278470009565353
1.69453705988584E+018,,26690,,1694537061,237178374,"""world""",,,7.92960548400879,0.886454164981842,-1.78704571723938,,-0.719950914382935,-0.625227034091949,-0.114805988967419,-0.278534352779388
1.69453705989382E+018,,26691,,1694537061,245233676,"""world""",,,7.92968034744263,0.886402070522308,-1.78707659244537,,-0.720077693462372,-0.625023305416107,-0.114786989986897,-0.27867180109024
1.69453705990228E+018,,26692,,1694537061,253647944,"""world""",,,7.92967462539673,0.886354684829712,-1.78708779811859,,-0.720010817050934,-0.62495344877243,-0.115058198571205,-0.278889447450638
1.6945370599108E+018,,26693,,1694537061,261962962,"""world""",,,7.92970991134644,0.886305630207062,-1.78713369369507,,-0.720110058784485,-0.625119149684906,-0.11441146582365,-0.278527706861496
1.69453705991914E+018,,26694,,1694537061,270481301,"""world""",,,7.92968368530273,0.886295080184937,-1.78714680671692,,-0.720010876655579,-0.625281691551209,-0.114486210048199,-0.278388470411301
1.6945370599273E+018,,26695,,1694537061,278662686,"""world""",,,7.92969083786011,0.886293590068817,-1.78710663318634,,-0.720117330551147,-0.625133693218231,-0.114488236606121,-0.278444647789001
1.69453705993603E+018,,26696,,1694537061,287313416,"""world""",,,7.92975187301636,0.886271774768829,-1.78712868690491,,-0.7201247215271,-0.625040411949158,-0.114695176482201,-0.27854973077774
1.69453705994441E+018,,26697,,1694537061,295394416,"""world""",,,7.92976760864258,0.886282086372376,-1.78714883327484,,-0.720150232315064,-0.625092685222626,-0.114542812108994,-0.278428971767426
1.694537059953E+018,,26698,,1694537061,303646121,"""world""",,,7.9298095703125,0.88628101348877,-1.78716611862183,,-0.720200419425964,-0.624875962734222,-0.114857867360115,-0.278656035661697
1.69453705996133E+018,,26699,,1694537061,312747051,"""world""",,,7.92980766296387,0.88628363609314,-1.78717935085297,,-0.720166206359863,-0.625230014324188,-0.114057928323746,-0.278278291225433
1.69453705996901E+018,,26700,,1694537061,320257358,"""world""",,,7.9297776222229,0.886287093162537,-1.78715586662292,,-0.720197200775147,-0.625059962272644,-0.114404529333115,-0.278437972068787
1.69453705997722E+018,,26701,,1694537061,328448710,"""world""",,,7.9297776222229,0.886284351348877,-1.78715395927429,,-0.720144808292389,-0.625031352043152,-0.114636786282063,-0.278542071580887
1.69453705998616E+018,,26702,,1694537061,337139799,"""world""",,,7.92977523803711,0.88629162311554,-1.78713834285736,,-0.720148682594299,-0.625133633613586,-0.114424332976341,-0.27838984131813
1.69453705999391E+018,,26703,,1694537061,345287716,"""world""",,,7.9297366142273,0.886275112628937,-1.78714084625244,,-0.720143139362335,-0.625190019607544,-0.114466711878777,-0.278260380029678
1.69453706000222E+018,,26704,,1694537061,353613309,"""world""",,,7.92974948883057,0.88628762960434,-1.78709530830383,,-0.72008615732193,-0.624868869781494,-0.115297429263592,-0.278785556554794
1.69453706001095E+018,,26705,,1694537061,362002261,"""world""",,,7.92978239059448,0.886286795139313,-1.78710436820984,,-0.72017228603363,-0.625039994716644,-0.11465822905302,-0.278442680835724
1.69453706001902E+018,,26706,,1694537061,370369862,"""world""",,,7.92974996566772,0.886270105838776,-1.78711330890656,,-0.720142960548401,-0.625060975551605,-0.114565566182137,-0.278509706258774
1.69453706002736E+018,,26707,,1694537061,378701167,"""world""",,,7.92977142333984,0.886263132095337,-1.78710079193115,,-0.72016441822052,-0.624982893466949,-0.114626511931419,-0.278604596853256
1.69453706003656E+018,,26708,,1694537061,387830425,"""world""",,,7.92972660064697,0.886291921138763,-1.78704512119293,,-0.720149397850037,-0.625009715557098,-0.114679291844368,-0.278561323881149
1.69453706004386E+018,,26709,,1694537061,395259512,"""world""",,,7.92974662780762,0.886283159255981,-1.78707778453827,,-0.720126986503601,-0.62521630525589,-0.114214740693569,-0.278346449136734
1.69453706005252E+018,,26710,,1694537061,403869100,"""world""",,,7.92973899841309,0.886311531066895,-1.7870284318924,,-0.720040082931519,-0.62491911649704,-0.11522338539362,-0.278822511434555
1.69453706006126E+018,,26711,,1694537061,412617379,"""world""",,,7.92974042892456,0.886315047740936,-1.78706872463226,,-0.720085084438324,-0.625150442123413,-0.114583343267441,-0.278451144695282
1.69453706006945E+018,,26712,,1694537061,420564152,"""world""",,,7.92972230911255,0.886352300643921,-1.78702974319458,,-0.720005989074707,-0.625120222568512,-0.114767856895924,-0.278647601604462
1.694537060078E+018,,26713,,1694537061,429210223,"""world""",,,7.92973136901856,0.886334121227264,-1.78704619407654,,-0.72010338306427,-0.625266492366791,-0.114271134138107,-0.278271526098251
1.69453706008609E+018,,26714,,1694537061,437267087,"""world""",,,7.92972898483276,0.88632744550705,-1.78699481487274,,-0.720047235488892,-0.625056326389313,-0.114839166402817,-0.278654992580414
1.69453706009428E+018,,26715,,1694537061,445652412,"""world""",,,7.92974853515625,0.886317789554596,-1.78701257705688,,-0.720075309276581,-0.625017702579498,-0.114988304674625,-0.278607428073883
1.69453706010221E+018,,26716,,1694537061,453572263,"""world""",,,7.92977046966553,0.886272370815277,-1.78702127933502,,-0.720110952854157,-0.625142574310303,-0.114489130675793,-0.278440803289413
1.69453706011171E+018,,26717,,1694537061,462798769,"""world""",,,7.92975330352783,0.88627690076828,-1.78700613975525,,-0.720143854618073,-0.624762058258057,-0.115326471626759,-0.278863728046417
1.69453706011928E+018,,26718,,1694537061,470542969,"""world""",,,7.9297661781311,0.886272609233856,-1.78701448440552,,-0.720090091228485,-0.624981820583344,-0.114910133183002,-0.278682082891464
1.69453706012898E+018,,26719,,1694537061,480165623,"""world""",,,7.92975044250488,0.8862544298172,-1.78702557086945,,-0.720089673995972,-0.625008940696716,-0.114875055849552,-0.278636902570724
1.6945370601358E+018,,26720,,1694537061,487041337,"""world""",,,7.92975759506226,0.88627016544342,-1.78702878952026,,-0.720102310180664,-0.624832212924957,-0.115093424916267,-0.278910309076309
1.69453706014445E+018,,26721,,1694537061,495483308,"""world""",,,7.92975902557373,0.886255085468292,-1.78706181049347,,-0.720204532146454,-0.624926209449768,-0.114727571606636,-0.278586238622665
1.69453706015253E+018,,26722,,1694537061,503805224,"""world""",,,7.92974138259888,0.88627028465271,-1.78706002235413,,-0.720104873180389,-0.625213444232941,-0.114351950585842,-0.278353810310364
1.69453706016137E+018,,26723,,1694537061,512310645,"""world""",,,7.9297342300415,0.886288404464722,-1.78706037998199,,-0.72003710269928,-0.625070333480835,-0.114919289946556,-0.278616696596146
1.69453706016886E+018,,26724,,1694537061,520234174,"""world""",,,7.9297342300415,0.886291861534119,-1.78710091114044,,-0.720114052295685,-0.625100314617157,-0.114617802202702,-0.278474658727646
1.6945370601778E+018,,26725,,1694537061,529028079,"""world""",,,7.9297456741333,0.886301696300507,-1.78714406490326,,-0.720105767250061,-0.625099360942841,-0.114666938781738,-0.278478026390076
1.69453706018589E+018,,26726,,1694537061,537182862,"""world""",,,7.92969751358032,0.886319577693939,-1.78715193271637,,-0.7200847864151,-0.625183403491974,-0.114400036633015,-0.278453350067139
1.69453706019454E+018,,26727,,1694537061,545836630,"""world""",,,7.9297194480896,0.886336743831635,-1.78716552257538,,-0.720102071762085,-0.625185012817383,-0.114455334842205,-0.278382182121277
1.69453706020218E+018,,26728,,1694537061,553558398,"""world""",,,7.92969751358032,0.886337757110596,-1.78716552257538,,-0.720078945159912,-0.625161349773407,-0.114534601569176,-0.278462886810303
1.69453706021065E+018,,26729,,1694537061,561917158,"""world""",,,7.92969083786011,0.88631796836853,-1.78715980052948,,-0.72014707326889,-0.625109910964966,-0.11454738676548,-0.278396934270859
1.69453706022135E+018,,26730,,1694537061,572669180,"""world""",,,7.92970609664917,0.886323034763336,-1.78715002536774,,-0.719999849796295,-0.625206053256989,-0.114689074456692,-0.278503447771072
1.69453706022769E+018,,26731,,1694537061,578654061,"""world""",,,7.92971134185791,0.886297345161438,-1.78715217113495,,-0.720081806182861,-0.625188767910004,-0.114540539681911,-0.278391420841217
1.69453706023607E+018,,26732,,1694537061,587167177,"""world""",,,7.92967891693115,0.886321842670441,-1.78713166713715,,-0.72007817029953,-0.625065863132477,-0.114818759262562,-0.278562277555466
1.69453706024395E+018,,26733,,1694537061,595135056,"""world""",,,7.92970418930054,0.886334300041199,-1.78714632987976,,-0.720098972320557,-0.625388979911804,-0.113989323377609,-0.278123408555984
1.6945370602525E+018,,26734,,1694537061,603772638,"""world""",,,7.9297137260437,0.886333227157593,-1.78712153434753,,-0.720137894153595,-0.625072598457336,-0.114452920854092,-0.278543204069138
1.6945370602614E+018,,26735,,1694537061,612485515,"""world""",,,7.92972469329834,0.88632869720459,-1.78709292411804,,-0.720048606395721,-0.625194907188416,-0.114358149468899,-0.278538376092911
1.69453706026898E+018,,26736,,1694537061,620377423,"""world""",,,7.92969608306885,0.886329114437103,-1.78705871105194,,-0.720064759254456,-0.624951004981995,-0.114880979061127,-0.278828710317612
1.69453706027716E+018,,26737,,1694537061,628532222,"""world""",,,7.9297342300415,0.886319816112518,-1.78706383705139,,-0.720103979110718,-0.625056385993958,-0.114767216145992,-0.27853786945343
1.69453706028599E+018,,26738,,1694537061,637278916,"""world""",,,7.92972898483276,0.886311292648315,-1.78703200817108,,-0.720089077949524,-0.624873578548431,-0.115219861268997,-0.278799533843994
1.6945370602939E+018,,26739,,1694537061,645268715,"""world""",,,7.92970514297485,0.886313915252686,-1.78702998161316,,-0.720143973827362,-0.62510621547699,-0.114491142332554,-0.278436064720154
1.69453706030241E+018,,26740,,1694537061,653627645,"""world""",,,7.92972040176392,0.886327028274536,-1.78700435161591,,-0.720107972621918,-0.624965071678162,-0.114941395819187,-0.278660535812378
1.69453706031056E+018,,26741,,1694537061,661928396,"""world""",,,7.92969274520874,0.886329293251038,-1.7870260477066,,-0.720063030719757,-0.624949812889099,-0.115172766149044,-0.278715431690216
1.69453706031919E+018,,26742,,1694537061,670564517,"""world""",,,7.92964506149292,0.886349678039551,-1.78701341152191,,-0.720062792301178,-0.625059425830841,-0.114861235022545,-0.278598666191101
1.69453706032743E+018,,26743,,1694537061,678689088,"""world""",,,7.92966222763062,0.886341273784637,-1.78702962398529,,-0.720074832439423,-0.625171840190887,-0.114584051072598,-0.278429329395294
1.6945370603357E+018,,26744,,1694537061,687045907,"""world""",,,7.92968845367432,0.886349678039551,-1.78700423240662,,-0.720083892345428,-0.625036120414734,-0.11474721878767,-0.278643518686295
1.69453706034398E+018,,26745,,1694537061,695323483,"""world""",,,7.92967557907105,0.886349320411682,-1.78703200817108,,-0.72007167339325,-0.62517386674881,-0.114568494260311,-0.278439462184906
1.69453706035248E+018,,26746,,1694537061,703570751,"""world""",,,7.92966508865356,0.886361539363861,-1.78703796863556,,-0.720087051391602,-0.62509673833847,-0.114644683897495,-0.278541564941406
1.6945370603607E+018,,26747,,1694537061,712066025,"""world""",,,7.92966651916504,0.886360943317413,-1.78706192970276,,-0.720057189464569,-0.625099718570709,-0.11456111073494,-0.278646320104599
1.69453706036928E+018,,26748,,1694537061,720471029,"""world""",,,7.92963743209839,0.886400997638702,-1.78706824779511,,-0.719973921775818,-0.625195682048798,-0.114679947495461,-0.278597295284271
1.69453706037731E+018,,26749,,1694537061,728715370,"""world""",,,7.9295768737793,0.886422991752625,-1.78705286979675,,-0.720011174678803,-0.625213801860809,-0.114663295447826,-0.278467237949371
1.69453706038634E+018,,26750,,1694537061,737469862,"""world""",,,7.92960834503174,0.886399209499359,-1.78707814216614,,-0.720014750957489,-0.6252720952034,-0.114478386938572,-0.278403043746948
1.69453706039431E+018,,26751,,1694537061,745393635,"""world""",,,7.92962980270386,0.886373817920685,-1.78710305690765,,-0.720015406608582,-0.625346660614014,-0.114340625703335,-0.278290420770645
1.69453706040253E+018,,26752,,1694537061,753797084,"""world""",,,7.92961072921753,0.886376202106476,-1.78709828853607,,-0.720038950443268,-0.625257432460785,-0.114453889429569,-0.278383791446686
1.69453706041074E+018,,26753,,1694537061,761962893,"""world""",,,7.92964935302734,0.886361181735992,-1.78711926937103,,-0.720035791397095,-0.625227093696594,-0.114563681185246,-0.278414607048035
1.69453706041963E+018,,26754,,1694537061,770595406,"""world""",,,7.92963981628418,0.886366724967957,-1.78712737560272,,-0.720027387142181,-0.625356554985046,-0.114227518439293,-0.278283774852753
1.69453706042802E+018,,26755,,1694537061,778586563,"""world""",,,7.92968606948853,0.886345744132996,-1.7871265411377,,-0.7200608253479,-0.625194311141968,-0.114467814564705,-0.278462946414947
1.69453706043558E+018,,26756,,1694537061,786968964,"""world""",,,7.92963933944702,0.886360764503479,-1.78712046146393,,-0.720077753067017,-0.625285863876343,-0.114267185330391,-0.27829584479332
1.69453706044396E+018,,26757,,1694537061,795404970,"""world""",,,7.92966461181641,0.886332094669342,-1.78713047504425,,-0.720087468624115,-0.625175178050995,-0.114469267427921,-0.278436750173569
1.69453706045262E+018,,26758,,1694537061,803972922,"""world""",,,7.92964792251587,0.886345267295837,-1.78712499141693,,-0.720020473003387,-0.625336945056915,-0.114404879510403,-0.278273046016693
1.69453706046115E+018,,26759,,1694537061,812484548,"""world""",,,7.92967128753662,0.886347413063049,-1.78712892532349,,-0.720058739185333,-0.625124871730804,-0.114765048027039,-0.278501927852631
1.69453706046943E+018,,26760,,1694537061,820799717,"""world""",,,7.92967033386231,0.886337757110596,-1.78713011741638,,-0.720150709152222,-0.625009953975678,-0.114682964980602,-0.278555750846863
1.69453706047762E+018,,26761,,1694537061,828819831,"""world""",,,7.92968082427979,0.886353194713593,-1.78712153434753,,-0.720118522644043,-0.625165700912476,-0.114434570074081,-0.278391718864441
1.69453706048599E+018,,26762,,1694537061,837085671,"""world""",,,7.92966461181641,0.886344850063324,-1.78708434104919,,-0.720124900341034,-0.625161647796631,-0.114402420818806,-0.278397619724274
1.69453706049387E+018,,26763,,1694537061,845268182,"""world""",,,7.92966842651367,0.886358320713043,-1.78711152076721,,-0.720089018344879,-0.62531441450119,-0.114234134554863,-0.27821609377861
1.69453706050243E+018,,26764,,1694537061,853661617,"""world""",,,7.92965650558472,0.886364221572876,-1.78707122802734,,-0.720024049282074,-0.625202775001526,-0.114619508385658,-0.278476715087891
1.6945370605109E+018,,26765,,1694537061,862281674,"""world""",,,7.92965316772461,0.886358439922333,-1.78709542751312,,-0.720087945461273,-0.625176191329956,-0.114447839558125,-0.278441697359085
1.69453706051917E+018,,26766,,1694537061,870582113,"""world""",,,7.92965698242188,0.886380255222321,-1.78708493709564,,-0.720046401023865,-0.625175416469574,-0.114567399024963,-0.278501749038696
1.6945370605593E+018,,26767,,1694537061,910732922,"""world""",,,7.92963981628418,0.886373579502106,-1.78705728054047,,-0.72000652551651,-0.625168800354004,-0.114635668694973,-0.278591483831406
1.69453706055991E+018,,26768,,1694537061,911379694,"""world""",,,7.9296350479126,0.886372148990631,-1.78704786300659,,-0.720090568065643,-0.625152587890625,-0.11449459195137,-0.278468728065491
1.69453706056023E+018,,26769,,1694537061,911393833,"""world""",,,7.92965650558472,0.886381804943085,-1.78699004650116,,-0.72006106376648,-0.624999523162842,-0.11492670327425,-0.2787104845047
1.69453706056047E+018,,26770,,1694537061,911487012,"""world""",,,7.92962884902954,0.88637501001358,-1.78689920902252,,-0.720058381557465,-0.625126779079437,-0.114949733018875,-0.278422296047211
1.69453706056168E+018,,26771,,1694537061,913089783,"""world""",,,7.92963695526123,0.886349141597748,-1.78691744804382,,-0.72021222114563,-0.625068962574005,-0.11476457118988,-0.278230637311935
1.69453706056929E+018,,26772,,1694537061,920487778,"""world""",,,7.9296236038208,0.886371731758118,-1.78685009479523,,-0.720103323459625,-0.625092208385468,-0.114935539662838,-0.278389692306519
1.69453706057748E+018,,26773,,1694537061,928810438,"""world""",,,7.92963743209839,0.886368453502655,-1.78685653209686,,-0.720072388648987,-0.624937236309052,-0.115234419703484,-0.278693795204163
1.69453706058594E+018,,26774,,1694537061,937163881,"""world""",,,7.92964029312134,0.886370718479157,-1.78683757781982,,-0.720027625560761,-0.624955773353577,-0.115170478820801,-0.278794437646866
1.6945370605943E+018,,26775,,1694537061,945612638,"""world""",,,7.92967510223389,0.88635641336441,-1.78684079647064,,-0.72006767988205,-0.62497478723526,-0.115131735801697,-0.278664320707321
1.69453706060236E+018,,26776,,1694537061,953745294,"""world""",,,7.92967081069946,0.886330604553223,-1.78682971000671,,-0.720006287097931,-0.625042736530304,-0.114989466965199,-0.278729259967804
1.69453706061109E+018,,26777,,1694537061,962533268,"""world""",,,7.92968225479126,0.886331796646118,-1.78677654266357,,-0.720097124576569,-0.624804675579071,-0.115443259477615,-0.278840690851212
1.69453706061959E+018,,26778,,1694537061,970896882,"""world""",,,7.92967033386231,0.886326670646668,-1.78676009178162,,-0.720116317272186,-0.624941885471344,-0.115269176661968,-0.278555542230606
1.69453706062797E+018,,26779,,1694537061,978638949,"""world""",,,7.92965698242188,0.886346101760864,-1.78673982620239,,-0.720086574554443,-0.624885439872742,-0.115372896194458,-0.278716206550598
1.69453706063597E+018,,26780,,1694537061,987407721,"""world""",,,7.92970609664917,0.886304080486298,-1.7868195772171,,-0.720044732093811,-0.625014185905457,-0.115060351788998,-0.278664827346802
1.69453706064436E+018,,26781,,1694537061,995653071,"""world""",,,7.92969036102295,0.886308968067169,-1.78680551052094,,-0.720068335533142,-0.624779462814331,-0.115415677428246,-0.278983116149902
1.69453706065245E+018,,26782,,1694537062,3662926,"""world""",,,7.92968034744263,0.886325597763062,-1.78681147098541,,-0.720161080360413,-0.624884068965912,-0.115107409656048,-0.278636425733566
1.69453706066389E+018,,26783,,1694537062,15290138,"""world""",,,7.9296612739563,0.886329770088196,-1.78680527210236,,-0.720095157623291,-0.624941170215607,-0.1151108071208,-0.278677463531494
1.69453706066933E+018,,26784,,1694537062,20477672,"""world""",,,7.92962408065796,0.88633805513382,-1.78681659698486,,-0.720075726509094,-0.62515389919281,-0.114799179136753,-0.278378814458847
1.69453706067733E+018,,26785,,1694537062,28588912,"""world""",,,7.9296178817749,0.886335432529449,-1.78681993484497,,-0.720004200935364,-0.62497466802597,-0.115394599735737,-0.278719872236252
1.69453706068576E+018,,26786,,1694537062,36769977,"""world""",,,7.92960929870606,0.88631397485733,-1.7868492603302,,-0.72002899646759,-0.625058352947235,-0.11520803719759,-0.278545290231705
1.6945370606951E+018,,26787,,1694537062,46005689,"""world""",,,7.92965888977051,0.886265277862549,-1.78689682483673,,-0.720047473907471,-0.625054001808167,-0.115001067519188,-0.278592795133591
1.69453706070276E+018,,26788,,1694537062,53855554,"""world""",,,7.92965745925903,0.886234939098358,-1.78687191009521,,-0.720161616802216,-0.624971389770508,-0.114785201847553,-0.278572082519531
1.69453706071131E+018,,26789,,1694537062,62332398,"""world""",,,7.92968702316284,0.886202275753021,-1.78689050674438,,-0.720146119594574,-0.624963581562042,-0.114823147654533,-0.278613954782486
1.69453706071951E+018,,26790,,1694537062,70869562,"""world""",,,7.92966508865356,0.886165142059326,-1.78690886497498,,-0.720236361026764,-0.624977231025696,-0.114597469568253,-0.278443068265915
1.69453706072772E+018,,26791,,1694537062,79127514,"""world""",,,7.92967319488525,0.886143028736115,-1.78692233562469,,-0.720178127288818,-0.624970614910126,-0.11474646627903,-0.27854710817337
1.69453706073595E+018,,26792,,1694537062,87244883,"""world""",,,7.92970132827759,0.886131107807159,-1.78689765930176,,-0.720191359519959,-0.624877333641052,-0.115077018737793,-0.278585821390152
1.69453706074381E+018,,26793,,1694537062,95246291,"""world""",,,7.92970657348633,0.886116862297058,-1.78692698478699,,-0.720190942287445,-0.624859154224396,-0.114904299378395,-0.278699040412903
1.69453706075644E+018,,26794,,1694537062,107165702,"""world""",,,7.92974233627319,0.88609516620636,-1.78690791130066,,-0.720221817493439,-0.624752521514893,-0.115156024694443,-0.278754323720932
1.69453706076072E+018,,26795,,1694537062,112029833,"""world""",,,7.92975091934204,0.886097490787506,-1.78691804409027,,-0.720265626907349,-0.624726831912994,-0.115029253065586,-0.278750896453857
1.69453706076921E+018,,26796,,1694537062,120421063,"""world""",,,7.92974424362183,0.886098086833954,-1.78690373897553,,-0.72031569480896,-0.624816536903381,-0.114720389246941,-0.278547912836075
1.69453706077763E+018,,26797,,1694537062,128727744,"""world""",,,7.92976713180542,0.886136889457703,-1.78688395023346,,-0.720315992832184,-0.624462485313416,-0.115523591637611,-0.279008448123932
1.69453706078624E+018,,26798,,1694537062,137340375,"""world""",,,7.92964553833008,0.886215031147003,-1.78688549995422,,-0.720260322093964,-0.62477570772171,-0.114947371184826,-0.27868914604187
1.69453706079438E+018,,26799,,1694537062,145781337,"""world""",,,7.92956447601318,0.886255919933319,-1.78690958023071,,-0.720046281814575,-0.625130593776703,-0.11489924788475,-0.278466194868088
1.69453706080298E+018,,26800,,1694537062,154352115,"""world""",,,7.92951393127441,0.886300444602966,-1.7869348526001,,-0.719919383525848,-0.62526935338974,-0.115006044507027,-0.278438478708267
1.69453706081099E+018,,26801,,1694537062,162212342,"""world""",,,7.92945146560669,0.8863645195961,-1.78691411018372,,-0.719922661781311,-0.625364422798157,-0.114690981805325,-0.278346717357635
1.69453706081912E+018,,26802,,1694537062,170326307,"""world""",,,7.92944431304932,0.886402904987335,-1.78690409660339,,-0.719997107982636,-0.625210762023926,-0.114886075258255,-0.278418660163879
1.69453706082778E+018,,26803,,1694537062,179120035,"""world""",,,7.92941236495972,0.886436700820923,-1.7868800163269,,-0.719970107078552,-0.625110924243927,-0.114941298961639,-0.278689593076706
1.69453706083589E+018,,26804,,1694537062,187282942,"""world""",,,7.92945289611816,0.88646125793457,-1.78688931465149,,-0.719995677471161,-0.625176966190338,-0.114777602255344,-0.278542935848236
1.69453706084558E+018,,26805,,1694537062,196975846,"""world""",,,7.92936897277832,0.886499762535095,-1.7868891954422,,-0.719918847084045,-0.62523227930069,-0.11475508660078,-0.27862673997879
1.69453706085312E+018,,26806,,1694537062,204357001,"""world""",,,7.92933082580566,0.886492013931274,-1.78687798976898,,-0.719843149185181,-0.625251471996307,-0.115113332867622,-0.27863147854805
1.6945370608611E+018,,26807,,1694537062,212382935,"""world""",,,7.92931461334229,0.886496722698212,-1.78687405586243,,-0.719849109649658,-0.625213205814362,-0.115182392299175,-0.27867329120636
1.69453706086943E+018,,26808,,1694537062,220545902,"""world""",,,7.92931127548218,0.886483073234558,-1.78687429428101,,-0.7198646068573,-0.625352144241333,-0.114889703691006,-0.278442144393921
1.69453706087754E+018,,26809,,1694537062,228609262,"""world""",,,7.92936134338379,0.886447489261627,-1.78687739372253,,-0.719945311546326,-0.625312805175781,-0.11472112685442,-0.278391420841217
1.69453706088565E+018,,26810,,1694537062,236916141,"""world""",,,7.92942523956299,0.88640022277832,-1.78689444065094,,-0.720056295394897,-0.62511020898819,-0.114810645580292,-0.278522551059723
1.69453706089403E+018,,26811,,1694537062,245333669,"""world""",,,7.92946529388428,0.88637763261795,-1.78689885139465,,-0.720067143440247,-0.625069618225098,-0.114914678037167,-0.278542518615723
1.6945370609029E+018,,26812,,1694537062,254196967,"""world""",,,7.92949676513672,0.886370420455933,-1.78690493106842,,-0.720020771026611,-0.625084161758423,-0.11490736156702,-0.278632670640945
1.69453706091105E+018,,26813,,1694537062,262360506,"""world""",,,7.92948246002197,0.886350512504578,-1.78689014911652,,-0.720023095607758,-0.625100374221802,-0.114930674433708,-0.278580814599991
1.69453706091925E+018,,26814,,1694537062,270514019,"""world""",,,7.92949914932251,0.886340796947479,-1.78690052032471,,-0.720007240772247,-0.625207185745239,-0.114674963057041,-0.278487533330917
1.69453706092705E+018,,26815,,1694537062,278492637,"""world""",,,7.92950868606567,0.886336028575897,-1.78691399097443,,-0.720005095005035,-0.625187456607819,-0.114708289504051,-0.278523683547974
1.69453706093946E+018,,26816,,1694537062,290828390,"""world""",,,7.92947721481323,0.886333882808685,-1.78688740730286,,-0.720003306865692,-0.625103354454041,-0.114967964589596,-0.278609871864319
1.694537060944E+018,,26817,,1694537062,295436357,"""world""",,,7.92954111099243,0.886308550834656,-1.78693211078644,,-0.719995737075806,-0.625187993049622,-0.114860944449902,-0.278483837842941
1.69453706095265E+018,,26818,,1694537062,303771808,"""world""",,,7.92952966690064,0.886318445205689,-1.7869621515274,,-0.720046162605286,-0.625034749507904,-0.114861056208611,-0.278696924448013
1.69453706096109E+018,,26819,,1694537062,312439250,"""world""",,,7.92950773239136,0.886336266994476,-1.78698325157166,,-0.719993412494659,-0.625117897987366,-0.11492507904768,-0.278620541095734
1.69453706096935E+018,,26820,,1694537062,320638596,"""world""",,,7.92950582504272,0.886340975761414,-1.78700602054596,,-0.720020532608032,-0.625154316425324,-0.114718154072762,-0.278553932905197
1.69453706097742E+018,,26821,,1694537062,328789314,"""world""",,,7.92948436737061,0.886354029178619,-1.78704631328583,,-0.719986915588379,-0.625302791595459,-0.114513829350472,-0.278391629457474
1.69453706098595E+018,,26822,,1694537062,337305392,"""world""",,,7.92943811416626,0.886395812034607,-1.78704798221588,,-0.719889879226685,-0.6252161860466,-0.114859469234943,-0.2786945104599
1.69453706099516E+018,,26823,,1694537062,346507847,"""world""",,,7.92944002151489,0.886409163475037,-1.78706610202789,,-0.719941020011902,-0.625302374362946,-0.114688582718372,-0.278439313173294
1.69453706100296E+018,,26824,,1694537062,353932379,"""world""",,,7.92940664291382,0.886410474777222,-1.78710091114044,,-0.720035970211029,-0.625325977802277,-0.114325694739819,-0.278290003538132
1.69453706101118E+018,,26825,,1694537062,362339868,"""world""",,,7.92944049835205,0.886412799358368,-1.78714203834534,,-0.72000914812088,-0.625295519828796,-0.114510111510754,-0.278352200984955
1.69453706101924E+018,,26826,,1694537062,370533591,"""world""",,,7.92940759658814,0.886417150497437,-1.78713142871857,,-0.719982087612152,-0.625328838825226,-0.114330850541592,-0.278420954942703
1.69453706102768E+018,,26827,,1694537062,379104873,"""world""",,,7.92943716049194,0.886413276195526,-1.78717315196991,,-0.719930827617645,-0.62532252073288,-0.114610031247139,-0.278452813625336
1.69453706103578E+018,,26828,,1694537062,387041654,"""world""",,,7.92942667007446,0.886431038379669,-1.7871550321579,,-0.719950795173645,-0.62535548210144,-0.114498645067215,-0.278372943401337
1.69453706104407E+018,,26829,,1694537062,395522025,"""world""",,,7.92944145202637,0.886421501636505,-1.7871515750885,,-0.719960868358612,-0.62521505355835,-0.114763632416725,-0.278553187847137
1.69453706105324E+018,,26830,,1694537062,404495001,"""world""",,,7.92943239212036,0.886395394802094,-1.78711140155792,,-0.71986597776413,-0.625309884548187,-0.114830024540424,-0.278558075428009
1.69453706106144E+018,,26831,,1694537062,412858714,"""world""",,,7.92944049835205,0.886390626430512,-1.78706085681915,,-0.720041215419769,-0.625202000141144,-0.114608712494373,-0.278438538312912
1.69453706106914E+018,,26832,,1694537062,420585071,"""world""",,,7.92947435379028,0.886362493038178,-1.78702819347382,,-0.719980001449585,-0.625134587287903,-0.115015640854836,-0.278580129146576
1.69453706107766E+018,,26833,,1694537062,428870683,"""world""",,,7.92951726913452,0.886332333087921,-1.78702473640442,,-0.720029950141907,-0.625041961669922,-0.114965379238129,-0.27867978811264
1.6945370610859E+018,,26834,,1694537062,437255150,"""world""",,,7.9295506477356,0.886300086975098,-1.78700053691864,,-0.720022141933441,-0.625170409679413,-0.114671237766743,-0.278533101081848
1.69453706109425E+018,,26835,,1694537062,445563648,"""world""",,,7.92956018447876,0.886277735233307,-1.78698432445526,,-0.719991445541382,-0.625120043754578,-0.114879637956619,-0.278639644384384
1.69453706110298E+018,,26836,,1694537062,454145094,"""world""",,,7.92955207824707,0.886286377906799,-1.786945104599,,-0.720106363296509,-0.625071942806244,-0.114776976406574,-0.27849268913269
1.69453706111092E+018,,26837,,1694537062,462330609,"""world""",,,7.92956018447876,0.886249244213104,-1.78693580627441,,-0.720057249069214,-0.625171720981598,-0.114620916545391,-0.278459966182709
1.69453706111904E+018,,26838,,1694537062,470372757,"""world""",,,7.92956256866455,0.88627028465271,-1.78690874576569,,-0.720030665397644,-0.625198841094971,-0.114714547991753,-0.278429180383682
1.69453706112806E+018,,26839,,1694537062,479419932,"""world""",,,7.92954397201538,0.886285185813904,-1.78689885139465,,-0.72010350227356,-0.624984741210938,-0.114962369203568,-0.278619378805161
1.69453706113733E+018,,26840,,1694537062,487463214,"""world""",,,7.92963361740112,0.886260211467743,-1.78695070743561,,-0.720160663127899,-0.625046133995056,-0.114591777324677,-0.278486639261246
1.69453706114413E+018,,26841,,1694537062,495431210,"""world""",,,7.92963409423828,0.886267721652985,-1.78694319725037,,-0.720129907131195,-0.624938726425171,-0.114966325461864,-0.278652518987656
1.69453706115238E+018,,26842,,1694537062,503833144,"""world""",,,7.92958354949951,0.88629162311554,-1.78693115711212,,-0.720079839229584,-0.624890804290772,-0.11511143296957,-0.278829663991928
1.69453706116099E+018,,26843,,1694537062,512257582,"""world""",,,7.9295916557312,0.8862624168396,-1.78699028491974,,-0.720085561275482,-0.624977290630341,-0.1150176897645,-0.278659492731094
1.69453706116923E+018,,26844,,1694537062,520637231,"""world""",,,7.92956209182739,0.886269927024841,-1.78698992729187,,-0.720023691654205,-0.625067830085754,-0.115033738315105,-0.278609693050385
1.69453706117724E+018,,26845,,1694537062,528669015,"""world""",,,7.92953395843506,0.886273860931397,-1.78701114654541,,-0.720084965229034,-0.625051438808441,-0.114889226853848,-0.278547883033752
1.69453706118581E+018,,26846,,1694537062,537255665,"""world""",,,7.92955446243286,0.886296272277832,-1.7870112657547,,-0.719986915588379,-0.625264585018158,-0.114484243094921,-0.27848955988884
1.6945370611938E+018,,26847,,1694537062,545210903,"""world""",,,7.92956733703613,0.886274874210358,-1.78706514835358,,-0.720087647438049,-0.625113308429718,-0.114598579704762,-0.278521746397018
1.69453706120262E+018,,26848,,1694537062,553950926,"""world""",,,7.92959499359131,0.886281192302704,-1.78706467151642,,-0.720141768455505,-0.624952375888824,-0.114928983151913,-0.278606623411179
1.69453706121076E+018,,26849,,1694537062,562190542,"""world""",,,7.9295825958252,0.886284112930298,-1.78707897663116,,-0.720186114311218,-0.625054121017456,-0.114572688937187,-0.278410464525223
1.69453706121924E+018,,26850,,1694537062,570661583,"""world""",,,7.92955446243286,0.886298716068268,-1.78706395626068,,-0.720050156116486,-0.625174701213837,-0.114584498107433,-0.278486549854279
1.69453706122746E+018,,26851,,1694537062,578703146,"""world""",,,7.92951583862305,0.886301636695862,-1.78702616691589,,-0.720069527626038,-0.625022530555725,-0.114908702671528,-0.278644323348999
1.69453706123553E+018,,26852,,1694537062,586942759,"""world""",,,7.92956209182739,0.886287212371826,-1.78706359863281,,-0.720111191272736,-0.625248670578003,-0.114396512508392,-0.278239965438843
1.69453706124501E+018,,26853,,1694537062,596437122,"""world""",,,7.92959594726563,0.88624769449234,-1.78708648681641,,-0.720102250576019,-0.625102758407593,-0.11472574621439,-0.278455317020416
1.69453706125223E+018,,26854,,1694537062,603605248,"""world""",,,7.92958498001099,0.886256396770477,-1.78706240653992,,-0.720083236694336,-0.625255882740021,-0.114374779164791,-0.27830508351326
1.69453706126138E+018,,26855,,1694537062,612309282,"""world""",,,7.92963171005249,0.886215925216675,-1.7870774269104,,-0.720126509666443,-0.624969720840454,-0.114824905991554,-0.278650254011154
1.69453706126891E+018,,26856,,1694537062,620175943,"""world""",,,7.92967510223389,0.886178970336914,-1.78711020946503,,-0.72011137008667,-0.62523478269577,-0.114227138459682,-0.278340458869934
1.69453706127724E+018,,26857,,1694537062,628518820,"""world""",,,7.92965841293335,0.88616406917572,-1.78707003593445,,-0.72020024061203,-0.625026047229767,-0.114519104361534,-0.278458923101425
1.69453706128546E+018,,26858,,1694537062,636922889,"""world""",,,7.92969369888306,0.886160552501678,-1.78708231449127,,-0.720190167427063,-0.625073194503784,-0.114364795386791,-0.278442740440369
1.69453706129455E+018,,26859,,1694537062,645602963,"""world""",,,7.92967033386231,0.886169016361237,-1.78708839416504,,-0.72016704082489,-0.624990999698639,-0.114751398563385,-0.278527945280075
1.69453706130239E+018,,26860,,1694537062,653698288,"""world""",,,7.92959499359131,0.886204302310944,-1.7870364189148,,-0.720154404640198,-0.625108420848846,-0.114449888467789,-0.278421223163605
1.69453706131065E+018,,26861,,1694537062,662023198,"""world""",,,7.92963075637817,0.886225700378418,-1.78703272342682,,-0.72010350227356,-0.625016391277313,-0.114858098328114,-0.278591483831406
1.69453706131939E+018,,26862,,1694537062,670590471,"""world""",,,7.92960643768311,0.886250019073486,-1.78701841831207,,-0.720158040523529,-0.625145792961121,-0.114369235932827,-0.278360992670059
1.69453706132799E+018,,26863,,1694537062,679206614,"""world""",,,7.92964744567871,0.886236667633057,-1.78703510761261,,-0.720138013362885,-0.625077486038208,-0.114541321992874,-0.278495669364929
1.69453706133567E+018,,26864,,1694537062,687064239,"""world""",,,7.92961406707764,0.886253237724304,-1.78696978092194,,-0.720146119594574,-0.624797463417053,-0.115182682871819,-0.278838157653809
1.69453706134413E+018,,26865,,1694537062,695570372,"""world""",,,7.92957353591919,0.886281311511993,-1.78698360919952,,-0.720168650150299,-0.625001847743988,-0.114710502326489,-0.278516232967377
