rosbagTimestamp,header,seq,stamp,secs,nsecs,frame_id,pose,position,x,y,z,orientation,ux,uy,uz,w
1.69453705878734E+018,,26558,,1694537060,138732837,"""world""",,,7.20459985733032,0.0166587810963392,-1.75533592700958,,-0.000381197984097525,6.06836110819131E-05,0.000696186965797097,-0.999999761581421
1.69453705879392E+018,,26559,,1694537060,145307886,"""world""",,,7.2046160697937,0.0166816171258688,-1.75529503822327,,-0.000347259134287015,0.00011231197277084,0.000626079679932445,-0.999999821186066
1.69453705880283E+018,,26560,,1694537060,154161706,"""world""",,,7.20461130142212,0.0166982039809227,-1.75531125068665,,-0.000283258559647948,7.60087423259392E-05,0.000708242296241224,-0.999999761581421
1.69453705881171E+018,,26561,,1694537060,162366446,"""world""",,,7.20459699630737,0.016678549349308,-1.75530600547791,,-0.000312331249006093,0.000101254125183914,0.000668707303702831,-0.999999701976776
1.69453705881918E+018,,26562,,1694537060,170453845,"""world""",,,7.20459461212158,0.0166597440838814,-1.75532531738281,,-0.000408433581469581,8.99690567166545E-05,0.00058913481188938,-0.999999821186066
1.69453705882769E+018,,26563,,1694537060,178831128,"""world""",,,7.20462894439697,0.0166845228523016,-1.75531136989594,,-0.000457820773590356,0.00017870833107736,0.000653515220619738,-0.999999701976776
1.69453705883622E+018,,26564,,1694537060,187412709,"""world""",,,7.20460033416748,0.0166598446667194,-1.75528275966644,,-0.000364656210877001,8.63368913996965E-05,0.00065196433570236,-0.999999701976776
1.6945370588449E+018,,26565,,1694537060,195818516,"""world""",,,7.20461750030518,0.0166905652731657,-1.75530159473419,,-0.000398763600969687,0.000197517758351751,0.000623211264610291,-0.999999701976776
1.69453705885281E+018,,26566,,1694537060,204009615,"""world""",,,7.20461702346802,0.0166770350188017,-1.7552992105484,,-0.000354996067471802,0.000136197122628801,0.00066464499104768,-0.999999701976776
1.69453705886103E+018,,26567,,1694537060,212316640,"""world""",,,7.20462846755981,0.0167129170149565,-1.7552924156189,,-0.000323802843922749,0.000144702455145307,0.000635152333416045,-0.999999761581421
1.6945370588699E+018,,26568,,1694537060,221170863,"""world""",,,7.20461273193359,0.0166788212954998,-1.75529992580414,,-0.000339188292855397,0.000124769809190184,0.000681751349475235,-0.999999761581421
1.69453705887781E+018,,26569,,1694537060,229108215,"""world""",,,7.20462083816528,0.0166922025382519,-1.75529634952545,,-0.000383053993573412,0.000193802683497779,0.000628995476290584,-0.999999761581421
1.69453705888618E+018,,26570,,1694537060,237348499,"""world""",,,7.20459318161011,0.016673756763339,-1.75531077384949,,-0.000380234065232798,0.000147737169754691,0.000634505937341601,-0.999999761581421
1.69453705889439E+018,,26571,,1694537060,245554988,"""world""",,,7.20462989807129,0.0166766438633204,-1.7552924156189,,-0.0003239220532123,0.000115353672299534,0.000727889535482973,-0.999999761581421
1.69453705890303E+018,,26572,,1694537060,254363407,"""world""",,,7.20462989807129,0.0167049448937178,-1.75529766082764,,-0.000316705205477774,0.000152331369463354,0.000731020350940526,-0.999999642372131
1.69453705891173E+018,,26573,,1694537060,263038740,"""world""",,,7.2046160697937,0.0166741404682398,-1.75530886650085,,-0.000299441278912127,0.000135717957164161,0.000714933266863227,-0.999999701976776
1.69453705892004E+018,,26574,,1694537060,271344093,"""world""",,,7.20462465286255,0.0166611447930336,-1.75532531738281,,-0.000323485233820975,0.000101952384284232,0.000708275882061571,-0.999999701976776
1.69453705892761E+018,,26575,,1694537060,278977963,"""world""",,,7.20460844039917,0.0166570525616407,-1.7553186416626,,-0.000331075047142804,0.000105689781776164,0.000663117738440633,-0.999999701976776
1.69453705893822E+018,,26576,,1694537060,287460857,"""world""",,,7.20460081100464,0.0166604742407799,-1.75531184673309,,-0.000371663511032239,0.0000970042674452998,0.000666931970044971,-0.999999701976776
1.69453705894446E+018,,26577,,1694537060,295774091,"""world""",,,7.2046332359314,0.0166671592742205,-1.7553026676178,,-0.000379163044271991,0.000148042643559165,0.000656504591461271,-0.999999761581421
1.6945370589529E+018,,26578,,1694537060,304144204,"""world""",,,7.20461320877075,0.0166667234152555,-1.75529599189758,,-0.000317180616548285,0.000109634856926277,0.000663756800349802,-0.999999761581421
1.69453705896123E+018,,26579,,1694537060,312530418,"""world""",,,7.2046070098877,0.016661174595356,-1.75530230998993,,-0.000280303531326354,0.000105795035779011,0.000660054909531027,-0.999999761581421
1.69453705896952E+018,,26580,,1694537060,320700962,"""world""",,,7.20462274551392,0.0166678857058287,-1.75531435012817,,-0.000377700751414523,0.000134901638375595,0.000692854810040444,-0.999999761581421
1.69453705897789E+018,,26581,,1694537060,329076007,"""world""",,,7.20461654663086,0.0167062189429998,-1.75531268119812,,-0.000398140138713643,0.00015189552505035,0.000675138609949499,-0.999999761581421
1.69453705898604E+018,,26582,,1694537060,337362108,"""world""",,,7.20461320877075,0.0166764929890633,-1.75529527664185,,-0.000362263614078984,0.000131660170154646,0.000636131851933897,-0.999999761581421
1.69453705899455E+018,,26583,,1694537060,345778921,"""world""",,,7.2046046257019,0.0166489984840155,-1.75532639026642,,-0.000350687332684174,0.000103814578324091,0.000672948604915291,-0.999999761581421
1.69453705900345E+018,,26584,,1694537060,354239743,"""world""",,,7.20462846755981,0.0166769027709961,-1.75529849529266,,-0.000281757733318955,0.000123968377010897,0.000592749216593802,-0.999999821186066
1.6945370590126E+018,,26585,,1694537060,363848220,"""world""",,,7.20462417602539,0.0166662260890007,-1.75530230998993,,-0.00032144840224646,0.000117212330223992,0.000609819544479251,-0.999999761581421
1.69453705901999E+018,,26586,,1694537060,371128030,"""world""",,,7.20461416244507,0.0166915766894817,-1.75532996654511,,-0.0003475105331745,0.00015188058023341,0.000611064431723207,-0.999999761581421
1.69453705902764E+018,,26587,,1694537060,379011832,"""world""",,,7.20461940765381,0.0166568085551262,-1.75531125068665,,-0.00031916712759994,0.000107948231743649,0.000598442158661783,-0.999999761581421
1.69453705903603E+018,,26588,,1694537060,387325436,"""world""",,,7.20462131500244,0.0166386310011148,-1.75533199310303,,-0.000382955855457112,0.000118542986456305,0.000564715475775301,-0.999999821186066
1.69453705904441E+018,,26589,,1694537060,395705658,"""world""",,,7.20461273193359,0.0166488736867905,-1.75532579421997,,-0.000347096123732626,0.000128996602143161,0.000702818972058594,-0.999999701976776
1.69453705905294E+018,,26590,,1694537060,404301001,"""world""",,,7.20461273193359,0.016671409830451,-1.75532257556915,,-0.000392790097976103,0.000109280495962594,0.000710659311152995,-0.999999642372131
1.69453705906099E+018,,26591,,1694537060,412350644,"""world""",,,7.20463371276856,0.0166706778109074,-1.755286693573,,-0.000282801338471472,0.000123992620501667,0.000633656745776534,-0.999999821186066
1.69453705906936E+018,,26592,,1694537060,420710552,"""world""",,,7.20463228225708,0.0166857857257128,-1.75529706478119,,-0.000343903549946845,0.000168564554769546,0.000706322025507689,-0.999999701976776
1.69453705907758E+018,,26593,,1694537060,428863068,"""world""",,,7.20461320877075,0.0166917964816093,-1.75530552864075,,-0.000350375747075304,0.000140273506985977,0.000538658176083118,-0.999999761581421
1.69453705908592E+018,,26594,,1694537060,437215707,"""world""",,,7.20461273193359,0.0166733805090189,-1.75529420375824,,-0.000307374255498871,0.000117502670036629,0.000600212253630161,-0.999999761581421
1.69453705909453E+018,,26595,,1694537060,445846840,"""world""",,,7.20462369918823,0.0166568588465452,-1.75530230998993,,-0.000352366478182375,0.000153194472659379,0.000636582495644689,-0.999999701976776
1.69453705910279E+018,,26596,,1694537060,454160849,"""world""",,,7.20460748672485,0.016650827601552,-1.75529944896698,,-0.000320905033731833,0.000129170774016529,0.000720850599464029,-0.999999761581421
1.69453705911111E+018,,26597,,1694537060,462185203,"""world""",,,7.20461225509644,0.016637921333313,-1.75528812408447,,-0.000339795980835333,0.000166084224474616,0.000635383941698819,-0.999999761581421
1.69453705911996E+018,,26598,,1694537060,470651069,"""world""",,,7.20460939407349,0.0166707448661327,-1.75529181957245,,-0.000337672972818837,0.000179906419361942,0.000678524898830801,-0.999999761581421
1.69453705912844E+018,,26599,,1694537060,479411933,"""world""",,,7.20459175109863,0.0166651718318462,-1.75528883934021,,-0.000337849021889269,0.000116486145998351,0.000754296837840229,-0.999999642372131
1.69453705913618E+018,,26600,,1694537060,487530074,"""world""",,,7.20462703704834,0.01669592410326,-1.75529170036316,,-0.000368724256986752,0.000150483625475317,0.000660271150991321,-0.999999701976776
1.69453705914433E+018,,26601,,1694537060,495579489,"""world""",,,7.20460796356201,0.0166733786463738,-1.755291223526,,-0.000374966970412061,9.98881223495118E-05,0.000606128131039441,-0.999999821186066
1.69453705915416E+018,,26602,,1694537060,505347269,"""world""",,,7.20461130142212,0.0166600104421377,-1.75530564785004,,-0.000322696432704106,0.000137716589961201,0.000587877235375345,-0.999999821186066
1.69453705916081E+018,,26603,,1694537060,512144481,"""world""",,,7.2046046257019,0.016642777249217,-1.75531196594238,,-0.000382391823222861,7.07511935615912E-05,0.00062239047838375,-0.999999761581421
1.69453705916939E+018,,26604,,1694537060,520734603,"""world""",,,7.20461559295654,0.016639644280076,-1.7552832365036,,-0.00038686694460921,0.000102849728136789,0.000550244585610926,-0.999999821186066
1.69453705917775E+018,,26605,,1694537060,529060996,"""world""",,,7.2046365737915,0.0166415497660637,-1.75530576705933,,-0.000365124637028202,9.9955614132341E-05,0.000539484084583819,-0.999999761581421
1.6945370591859E+018,,26606,,1694537060,537270440,"""world""",,,7.2046217918396,0.0166904591023922,-1.75529408454895,,-0.000299924111459404,0.000127219624118879,0.000668398861307651,-0.999999761581421
1.69453705919412E+018,,26607,,1694537060,545498985,"""world""",,,7.20462417602539,0.0166900828480721,-1.75530230998993,,-0.000363235943950713,0.000119060787255876,0.000703610363416374,-0.999999701976776
1.69453705920226E+018,,26608,,1694537060,553616903,"""world""",,,7.20462560653687,0.0166747812181711,-1.7553083896637,,-0.000396439951146021,0.000145887315738946,0.000626457738690078,-0.999999701976776
1.69453705921248E+018,,26609,,1694537060,563713639,"""world""",,,7.20461416244507,0.0166672393679619,-1.75531780719757,,-0.000366620952263474,0.000161475589266047,0.000728329119738191,-0.999999701976776
1.6945370592195E+018,,26610,,1694537060,570873883,"""world""",,,7.2046070098877,0.016640292480588,-1.75532686710358,,-0.000343776890076697,0.000157900212798268,0.000694553018547595,-0.999999701976776
1.69453705922789E+018,,26611,,1694537060,579117585,"""world""",,,7.20463609695435,0.0166447330266237,-1.75529992580414,,-0.000320640538120642,0.000107783409475815,0.000724063196685165,-0.999999761581421
1.69453705923598E+018,,26612,,1694537060,587351779,"""world""",,,7.20462322235107,0.0166557766497135,-1.75532031059265,,-0.000413237285101786,0.000143351091537625,0.000715948350261897,-0.999999642372131
1.69453705924454E+018,,26613,,1694537060,595477661,"""world""",,,7.20462226867676,0.0166673306375742,-1.75533330440521,,-0.000397374125896022,0.000134250672999769,0.000690763583406806,-0.999999761581421
1.69453705925257E+018,,26614,,1694537060,603797890,"""world""",,,7.20464611053467,0.0166987609118223,-1.75533318519592,,-0.000374601921066642,0.000153807777678594,0.000737222144380212,-0.999999701976776
1.6945370592609E+018,,26615,,1694537060,612155186,"""world""",,,7.20462989807129,0.0167159214615822,-1.75530970096588,,-0.000283330329693854,0.000146510617923923,0.000629253743682057,-0.999999821186066
1.69453705926991E+018,,26616,,1694537060,621265160,"""world""",,,7.20463848114014,0.0167023222893477,-1.75530910491943,,-0.000333691597916186,0.00012383893772494,0.00077032222179696,-0.999999642372131
1.69453705927783E+018,,26617,,1694537060,629037048,"""world""",,,7.20461416244507,0.0166863184422255,-1.7553209066391,,-0.000411815155530348,0.000136410861159675,0.000622886116616428,-0.999999701976776
1.69453705928616E+018,,26618,,1694537060,637366413,"""world""",,,7.20462226867676,0.0166562628000975,-1.75531399250031,,-0.00035769646638073,0.000127337465528399,0.00069493951741606,-0.999999761581421
1.69453705929461E+018,,26619,,1694537060,645775107,"""world""",,,7.20460319519043,0.0166869759559631,-1.75531423091888,,-0.000352696632035077,0.000134233894641511,0.000638820871245116,-0.999999701976776
1.69453705930233E+018,,26620,,1694537060,653658046,"""world""",,,7.20459365844727,0.0166817754507065,-1.75532293319702,,-0.000339166464982554,0.000127830149722286,0.00070435123052448,-0.999999701976776
1.69453705931097E+018,,26621,,1694537060,662281279,"""world""",,,7.20460557937622,0.0166653506457806,-1.75531041622162,,-0.000339524471201003,0.000127866442198865,0.0006716224597767,-0.999999701976776
1.69453705931987E+018,,26622,,1694537060,671200603,"""world""",,,7.20460748672485,0.016666891053319,-1.75529205799103,,-0.000386432831874117,0.000119603268103674,0.000595337012782693,-0.999999761581421
1.69453705932792E+018,,26623,,1694537060,679307723,"""world""",,,7.20458269119263,0.0166522413492203,-1.75530052185059,,-0.000282375724054873,0.000126389844808728,0.000628779467660934,-0.999999821186066
1.69453705933746E+018,,26624,,1694537060,687553087,"""world""",,,7.20461893081665,0.0166879128664732,-1.75532007217407,,-0.000271639903075993,0.000107264662801754,0.000649544002953917,-0.999999821186066
1.69453705934424E+018,,26625,,1694537060,695545830,"""world""",,,7.2046070098877,0.0166794303804636,-1.75530111789703,,-0.00031375847174786,0.00012988832895644,0.000623310683295131,-0.999999761581421
1.69453705935288E+018,,26626,,1694537060,704230006,"""world""",,,7.2046012878418,0.0167019832879305,-1.75531315803528,,-0.00037705255090259,0.000160318842972629,0.000580278865527362,-0.999999761581421
1.69453705936106E+018,,26627,,1694537060,712437251,"""world""",,,7.20460557937622,0.0166732054203749,-1.75530242919922,,-0.000301320687867701,0.000143709185067564,0.000699794327374548,-0.999999701976776
1.69453705936956E+018,,26628,,1694537060,720958395,"""world""",,,7.20459890365601,0.016663983464241,-1.75531375408173,,-0.000365889718523249,0.000162490687216632,0.000625553249847144,-0.999999761581421
1.69453705937785E+018,,26629,,1694537060,729130436,"""world""",,,7.20462846755981,0.0166727676987648,-1.75530672073364,,-0.000388944143196568,0.000135807349579409,0.000634272757451981,-0.999999761581421
1.69453705938794E+018,,26630,,1694537060,737352626,"""world""",,,7.20462560653687,0.0166927129030228,-1.75529658794403,,-0.000343431398505345,0.000113193469587713,0.000634941272437573,-0.999999821186066
1.69453705939474E+018,,26631,,1694537060,745875148,"""world""",,,7.20460367202759,0.0166738703846931,-1.75531995296478,,-0.000332975439960137,7.2996634116862E-05,0.000691411085426807,-0.999999761581421
1.69453705940354E+018,,26632,,1694537060,754911200,"""world""",,,7.20461177825928,0.0167003013193607,-1.75529289245605,,-0.000319969461997971,0.000100926517916378,0.000590243900660425,-0.999999761581421
1.69453705941124E+018,,26633,,1694537060,762363162,"""world""",,,7.20462989807129,0.0166758596897125,-1.75532865524292,,-0.000373296206817031,0.000105425315268803,0.000705944083165377,-0.999999701976776
1.69453705941995E+018,,26634,,1694537060,771326854,"""world""",,,7.2046160697937,0.0166461784392595,-1.75531530380249,,-0.000374700030079111,7.82222705311142E-05,0.000631660514045507,-0.999999761581421
1.69453705942815E+018,,26635,,1694537060,778953186,"""world""",,,7.20461702346802,0.01667645201087,-1.75531363487244,,-0.000369337998563424,0.000127113002236001,0.000728787330444902,-0.999999642372131
1.69453705943601E+018,,26636,,1694537060,787353297,"""world""",,,7.20460653305054,0.0166808143258095,-1.75532305240631,,-0.000378252210794017,0.000138804374728352,0.000646331172902137,-0.999999761581421
1.69453705944595E+018,,26637,,1694537060,795822863,"""world""",,,7.2046332359314,0.0166909713298082,-1.75531756877899,,-0.00031584978569299,0.000157568196300417,0.0006644232198596,-0.999999701976776
1.69453705945346E+018,,26638,,1694537060,804058572,"""world""",,,7.2046275138855,0.0166823789477348,-1.75531017780304,,-0.000333158444846049,0.000102752870589029,0.000631129078101367,-0.999999821186066
1.69453705946171E+018,,26639,,1694537060,812961595,"""world""",,,7.20461511611939,0.0166786164045334,-1.7553288936615,,-0.000345585081959143,8.37836778373458E-05,0.000633474672213197,-0.999999821186066
1.69453705946953E+018,,26640,,1694537060,820699327,"""world""",,,7.20459938049316,0.0166945047676563,-1.75531208515167,,-0.00031977950129658,8.40323336888105E-05,0.000711512519046664,-0.999999701976776
1.69453705947779E+018,,26641,,1694537060,829034418,"""world""",,,7.2046046257019,0.016693102195859,-1.75531303882599,,-0.000373142451280728,0.000124995640362613,0.000735938374418765,-0.999999642372131
1.69453705948617E+018,,26642,,1694537060,837395689,"""world""",,,7.20458698272705,0.016655782237649,-1.75532007217407,,-0.000340279337251559,7.17849834472872E-05,0.000629315327387303,-0.999999821186066
1.69453705949439E+018,,26643,,1694537060,845752311,"""world""",,,7.2046046257019,0.0166726280003786,-1.75531899929047,,-0.00033873796928674,0.000121329954708926,0.000644021260086447,-0.999999701976776
1.6945370595038E+018,,26644,,1694537060,855169827,"""world""",,,7.20461845397949,0.0167079567909241,-1.75530338287354,,-0.000333315838361159,0.000118860567454249,0.000669658882543445,-0.999999761581421
1.69453705951132E+018,,26645,,1694537060,862544907,"""world""",,,7.20461368560791,0.016707718372345,-1.7552981376648,,-0.00029753107810393,0.000104199651104864,0.000661647703964263,-0.999999761581421
1.69453705951988E+018,,26646,,1694537060,871282800,"""world""",,,7.20462274551392,0.016676589846611,-1.75531220436096,,-0.000260608794633299,4.5299773773877E-05,0.000597546866629273,-0.999999761581421
1.69453705952767E+018,,26647,,1694537060,878974051,"""world""",,,7.20463275909424,0.0166658200323582,-1.75532639026642,,-0.000376729905838147,0.000124021709780209,0.000633197603747249,-0.999999701976776
1.69453705953595E+018,,26648,,1694537060,887320272,"""world""",,,7.20459890365601,0.0166563149541616,-1.75531554222107,,-0.000296987738693133,0.000108197382360231,0.000648732704576105,-0.999999821186066
1.69453705954417E+018,,26649,,1694537060,895461791,"""world""",,,7.20461702346802,0.0166758242994547,-1.75530171394348,,-0.000318658683681861,9.75882212514989E-05,0.000700778851751238,-0.999999761581421
1.69453705955362E+018,,26650,,1694537060,904821465,"""world""",,,7.20459508895874,0.0166813284158707,-1.7552844285965,,-0.000299126899335533,0.000114664930151775,0.000606693443842232,-0.999999761581421
1.69453705956129E+018,,26651,,1694537060,912312979,"""world""",,,7.2046070098877,0.016685338690877,-1.75531017780304,,-0.000409315020078793,0.000113310336018913,0.000654626404866576,-0.999999701976776
1.69453705956889E+018,,26652,,1694537060,920269221,"""world""",,,7.20461511611939,0.016679085791111,-1.7553037405014,,-0.000372229755157605,0.000177549256477505,0.000699313706718385,-0.999999642372131
1.69453705957752E+018,,26653,,1694537060,928721707,"""world""",,,7.20459842681885,0.0166681185364723,-1.75531435012817,,-0.000287312606815249,9.31234317249619E-05,0.000625213142484427,-0.999999761581421
1.69453705958571E+018,,26654,,1694537060,937082815,"""world""",,,7.20459747314453,0.0166472066193819,-1.75531101226807,,-0.000288030656520277,0.000111379689769819,0.000682578189298511,-0.999999761581421
1.69453705959492E+018,,26655,,1694537060,946318042,"""world""",,,7.20460796356201,0.0166416857391596,-1.75531256198883,,-0.000302767031826079,0.000130112792248838,0.00067479070276022,-0.999999701976776
1.69453705960233E+018,,26656,,1694537060,953734409,"""world""",,,7.20460844039917,0.0166650209575892,-1.75529026985168,,-0.000313140131765977,0.000141748285386711,0.000565369729883969,-0.999999821186066
1.69453705961035E+018,,26657,,1694537060,961744776,"""world""",,,7.2046046257019,0.0166941657662392,-1.75529587268829,,-0.000343366147717461,0.000149982079165056,0.000568653107620776,-0.999999821186066
1.69453705961892E+018,,26658,,1694537060,970249107,"""world""",,,7.20457935333252,0.016663983464241,-1.75530099868774,,-0.000255481369094923,0.000125312260934152,0.000493973086122423,-0.99999988079071
1.69453705962745E+018,,26659,,1694537060,978621182,"""world""",,,7.20460367202759,0.0166662354022264,-1.75529277324677,,-0.00031497617601417,0.000129096006276086,0.000612918811384589,-0.999999761581421
1.69453705963584E+018,,26660,,1694537060,987132736,"""world""",,,7.20459794998169,0.016688970848918,-1.75529038906097,,-0.000396344432374462,0.000125143706100062,0.000655583397019655,-0.999999761581421
1.69453705964472E+018,,26661,,1694537060,995668415,"""world""",,,7.20461940765381,0.0166637189686298,-1.75531768798828,,-0.000398921925807372,0.000216188913327642,0.00060724641662091,-0.999999701976776
1.69453705965394E+018,,26662,,1694537061,3839242,"""world""",,,7.20459890365601,0.0166811924427748,-1.7552992105484,,-0.000312097516143695,0.00011259556049481,0.000640482408925891,-0.999999761581421
1.6945370596633E+018,,26663,,1694537061,14136144,"""world""",,,7.2046012878418,0.0166976880282164,-1.75529825687408,,-0.000359320169081911,0.000114936410682276,0.000621689076069742,-0.999999761581421
1.69453705966891E+018,,26664,,1694537061,20290225,"""world""",,,7.20461416244507,0.0166834630072117,-1.75531661510468,,-0.00036844439455308,8.68388742674142E-05,0.000727883190847933,-0.999999642372131
1.69453705967715E+018,,26665,,1694537061,28481972,"""world""",,,7.20459842681885,0.016678350046277,-1.75531756877899,,-0.000339603138854727,6.45099353278056E-05,0.00060135597595945,-0.999999761581421
1.69453705968618E+018,,26666,,1694537061,36869802,"""world""",,,7.20462226867676,0.0166692286729813,-1.75531935691834,,-0.000400225369958207,0.000130449247080833,0.000674920796882361,-0.999999761581421
1.694537059694E+018,,26667,,1694537061,45376457,"""world""",,,7.20458889007568,0.0166851785033941,-1.75530123710632,,-0.000319485174259171,0.000113962712930515,0.000639561738353223,-0.999999761581421
1.69453705970246E+018,,26668,,1694537061,53737749,"""world""",,,7.20463562011719,0.0166701562702656,-1.75531721115112,,-0.000348269590176642,0.000126950020785443,0.000693875132128596,-0.999999701976776
1.69453705971259E+018,,26669,,1694537061,62713363,"""world""",,,7.20461988449097,0.0166797898709774,-1.75531017780304,,-0.000340975500876084,0.000101425270258915,0.000683423306327313,-0.999999761581421
1.69453705971905E+018,,26670,,1694537061,70413724,"""world""",,,7.20463562011719,0.0167126134037972,-1.75530850887299,,-0.000361329526640475,0.000125162812764756,0.000766801473218948,-0.999999701976776
1.69453705972741E+018,,26671,,1694537061,78772848,"""world""",,,7.20462703704834,0.0167091898620129,-1.75530779361725,,-0.000346198357874528,0.000168439539265819,0.000588259310461581,-0.999999821186066
1.69453705973574E+018,,26672,,1694537061,87093764,"""world""",,,7.20462226867676,0.0166752655059099,-1.75533664226532,,-0.000344941538060084,0.000119919015560299,0.00063187419436872,-0.999999821186066
1.69453705974417E+018,,26673,,1694537061,95447924,"""world""",,,7.20462226867676,0.0166691243648529,-1.75532209873199,,-0.00038406322710216,0.000137268172693439,0.000712292501702905,-0.999999701976776
1.69453705975345E+018,,26674,,1694537061,103960479,"""world""",,,7.2046217918396,0.016671784222126,-1.755331158638,,-0.000399693584768102,0.000137886789161712,0.000563518900889903,-0.999999821186066
1.69453705976098E+018,,26675,,1694537061,112290237,"""world""",,,7.20461750030518,0.0167016293853521,-1.75531184673309,,-0.000276135397143662,6.85565464664251E-05,0.000619433063548058,-0.999999821186066
1.69453705976935E+018,,26676,,1694537061,120420665,"""world""",,,7.2046046257019,0.0167022161185741,-1.75530314445496,,-0.000327373505569994,0.000108058600744698,0.000660664751194418,-0.999999701976776
1.69453705977818E+018,,26677,,1694537061,129609282,"""world""",,,7.20459461212158,0.0166992042213678,-1.75530254840851,,-0.00034668916487135,0.000113283807877451,0.000720736861694604,-0.999999761581421
1.69453705978571E+018,,26678,,1694537061,137136377,"""world""",,,7.20460367202759,0.0166878961026669,-1.75532877445221,,-0.000374507304513827,0.000112575056846254,0.000639278383459896,-0.999999701976776
1.69453705979501E+018,,26679,,1694537061,146198614,"""world""",,,7.20460653305054,0.0166838057339191,-1.75531458854675,,-0.000262135232333094,0.000156506008352153,0.000654606556054205,-0.999999761581421
1.69453705980237E+018,,26680,,1694537061,153715482,"""world""",,,7.20460796356201,0.0166932363063097,-1.75529742240906,,-0.000326146458974108,8.86186244315468E-05,0.000619838538113982,-0.999999761581421
1.69453705981102E+018,,26681,,1694537061,162382697,"""world""",,,7.20459747314453,0.0166712421923876,-1.75530314445496,,-0.000328218215145171,0.000102015714219306,0.000658110366202891,-0.999999701976776
1.69453705981933E+018,,26682,,1694537061,170674553,"""world""",,,7.20460510253906,0.0166823770850897,-1.7552889585495,,-0.000331320421537384,0.000118603493319824,0.000667038781102747,-0.999999761581421
1.69453705982737E+018,,26683,,1694537061,178602206,"""world""",,,7.20462083816528,0.0167155396193266,-1.75526750087738,,-0.00029686899506487,0.000171818377566524,0.000684203929267824,-0.999999761581421
1.69453705983578E+018,,26684,,1694537061,187092762,"""world""",,,7.20461177825928,0.0167139135301113,-1.75526750087738,,-0.000249201024416834,0.00012481355224736,0.000659816956613213,-0.999999761581421
1.69453705984432E+018,,26685,,1694537061,195670512,"""world""",,,7.20462560653687,0.016759067773819,-1.75526809692383,,-0.000311245792545378,0.000174223037902266,0.000733357388526201,-0.999999642372131
1.69453705985295E+018,,26686,,1694537061,204134098,"""world""",,,7.20461940765381,0.0166530068963766,-1.75533163547516,,-0.000443916447693482,0.000203393472475,0.000628152280114591,-0.999999701976776
1.69453705986107E+018,,26687,,1694537061,212421628,"""world""",,,7.20461988449097,0.0166420601308346,-1.75534057617188,,-0.000448818958830088,0.000154183304402977,0.000639538280665875,-0.999999701976776
1.694537059869E+018,,26688,,1694537061,220388592,"""world""",,,7.20461177825928,0.0166641604155302,-1.75529789924622,,-0.000348769739503041,8.49170974106528E-05,0.000700199801940471,-0.999999761581421
1.6945370598777E+018,,26689,,1694537061,229065094,"""world""",,,7.20462465286255,0.0166956000030041,-1.75530290603638,,-0.00032246729824692,0.000158212205860764,0.000687592895701528,-0.999999701976776
1.69453705988583E+018,,26690,,1694537061,237173241,"""world""",,,7.20461416244507,0.0167005825787783,-1.75529932975769,,-0.000337720499373972,0.000122924844617955,0.000667842687107623,-0.999999701976776
1.69453705989381E+018,,26691,,1694537061,245229360,"""world""",,,7.20458602905273,0.0166748482733965,-1.75532495975494,,-0.000347333640092984,0.000133442750666291,0.000665633880998939,-0.999999761581421
1.69453705990226E+018,,26692,,1694537061,253643567,"""world""",,,7.20459508895874,0.0166775863617659,-1.75532627105713,,-0.000381970516173169,0.000106193176179659,0.00069723033811897,-0.999999761581421
1.69453705991058E+018,,26693,,1694537061,261888491,"""world""",,,7.20458459854126,0.0166620593518019,-1.75531542301178,,-0.000344661209965125,0.000144179983180948,0.000638063356745988,-0.999999761581421
1.69453705991911E+018,,26694,,1694537061,270477112,"""world""",,,7.20460891723633,0.0166698861867189,-1.75530767440796,,-0.000314199452986941,0.00011553757940419,0.000600986531935632,-0.999999761581421
1.6945370599273E+018,,26695,,1694537061,278658285,"""world""",,,7.20458269119263,0.0166867487132549,-1.75529420375824,,-0.000394343020161614,0.000118963449494913,0.000619377300608903,-0.999999821186066
1.69453705993582E+018,,26696,,1694537061,287239289,"""world""",,,7.20458984375,0.0166716501116753,-1.75530970096588,,-0.000345422042300925,0.000111425324575976,0.000647406501229852,-0.999999761581421
1.69453705994441E+018,,26697,,1694537061,295390004,"""world""",,,7.20461511611939,0.0166794843971729,-1.75530600547791,,-0.000315385113935918,0.000146072910865769,0.000701174547430128,-0.999999701976776
1.69453705995299E+018,,26698,,1694537061,303573042,"""world""",,,7.20461559295654,0.0166865512728691,-1.75530242919922,,-0.000329567730659619,0.000136411341372877,0.00069635477848351,-0.999999761581421
1.69453705996132E+018,,26699,,1694537061,312742622,"""world""",,,7.20461702346802,0.0166889112442732,-1.75531673431396,,-0.000357122771674767,9.2661524831783E-05,0.000595879682805389,-0.999999821186066
1.69453705996899E+018,,26700,,1694537061,320252967,"""world""",,,7.20463752746582,0.0166953708976507,-1.75530517101288,,-0.000315325451083481,0.000126623126561753,0.000663099868688732,-0.999999701976776
1.69453705997706E+018,,26701,,1694537061,328444460,"""world""",,,7.2046012878418,0.0166839044541121,-1.75530970096588,,-0.000356247299350798,8.16975079942495E-05,0.000658514560200274,-0.999999701976776
1.69453705998613E+018,,26702,,1694537061,337135663,"""world""",,,7.2046332359314,0.0166809223592281,-1.75530683994293,,-0.000336756580509245,0.000135230875457637,0.000681458099279553,-0.999999701976776
1.69453705999391E+018,,26703,,1694537061,345283357,"""world""",,,7.20462799072266,0.016660425812006,-1.75532495975494,,-0.000391610170481727,9.20962120289914E-05,0.000692932459060103,-0.999999761581421
1.69453706000223E+018,,26704,,1694537061,353608644,"""world""",,,7.2046422958374,0.0166884120553732,-1.75530230998993,,-0.000357930664904416,0.000156651774886996,0.000733870838303119,-0.999999701976776
1.69453706001095E+018,,26705,,1694537061,361998057,"""world""",,,7.20462846755981,0.0166998375207186,-1.75530076026917,,-0.000374624651158229,0.000169398786965758,0.000688586267642677,-0.999999701976776
1.694537060019E+018,,26706,,1694537061,370365530,"""world""",,,7.20460987091064,0.0166879203170538,-1.75532829761505,,-0.000405962666263804,0.00013871633564122,0.000584475637879223,-0.999999761581421
1.69453706002734E+018,,26707,,1694537061,378697059,"""world""",,,7.20460557937622,0.0166685339063406,-1.75530290603638,,-0.000343245104886591,0.000152506458107382,0.000643539882730693,-0.999999701976776
1.69453706003636E+018,,26708,,1694537061,387825042,"""world""",,,7.20460510253906,0.0166685506701469,-1.75529861450195,,-0.000349940848536789,0.000152819382492453,0.00065702828578651,-0.999999701976776
1.69453706004385E+018,,26709,,1694537061,395255298,"""world""",,,7.2046070098877,0.0166720692068338,-1.75528585910797,,-0.000358337652869523,0.0001553381443955,0.000658919860143214,-0.999999701976776
1.69453706005246E+018,,26710,,1694537061,403795598,"""world""",,,7.20461130142212,0.0166656244546175,-1.75527596473694,,-0.000290738942567259,0.000135510723339394,0.000640708778519183,-0.999999761581421
1.69453706006125E+018,,26711,,1694537061,412612895,"""world""",,,7.20461416244507,0.0166880413889885,-1.75527191162109,,-0.000336564698955044,0.000128049898194149,0.000642026425339282,-0.999999761581421
1.69453706006908E+018,,26712,,1694537061,420491122,"""world""",,,7.20462369918823,0.0166891440749168,-1.75528240203857,,-0.000330567476339638,0.000126085287774913,0.000659713055938482,-0.999999701976776
1.69453706007769E+018,,26713,,1694537061,429138369,"""world""",,,7.20460891723633,0.0167035255581141,-1.75527501106262,,-0.000306575704598799,8.69795112521388E-05,0.000665518746245652,-0.999999761581421
1.69453706008581E+018,,26714,,1694537061,437195439,"""world""",,,7.20461082458496,0.0166598372161388,-1.75529170036316,,-0.000279499276075512,0.000119126430945471,0.000586197944357991,-0.999999761581421
1.69453706009427E+018,,26715,,1694537061,445648258,"""world""",,,7.20461702346802,0.0166732463985682,-1.75527024269104,,-0.000293826276902109,0.000133711873786524,0.000666162522975355,-0.999999761581421
1.69453706010219E+018,,26716,,1694537061,453567494,"""world""",,,7.20462894439697,0.0166459064930677,-1.75530862808228,,-0.000294677593046799,0.000113129906821996,0.00060760643100366,-0.999999821186066
1.69453706011147E+018,,26717,,1694537061,462793318,"""world""",,,7.20461416244507,0.0166707783937454,-1.75528454780579,,-0.000310482602799311,0.000114727357868105,0.000643313222099096,-0.999999761581421
1.69453706011907E+018,,26718,,1694537061,470470790,"""world""",,,7.20461750030518,0.0166764631867409,-1.75529479980469,,-0.000332223367877305,0.000109186898043845,0.000662332458887249,-0.999999701976776
1.69453706012884E+018,,26719,,1694537061,480093285,"""world""",,,7.2046012878418,0.0166597701609135,-1.75529873371124,,-0.00028617974021472,0.000117461255285889,0.000619990227278322,-0.999999821186066
1.69453706013553E+018,,26720,,1694537061,486969500,"""world""",,,7.20462083816528,0.016680670902133,-1.7553026676178,,-0.000353491544956341,0.000170008352142759,0.000653439608868212,-0.999999761581421
1.69453706014401E+018,,26721,,1694537061,495412036,"""world""",,,7.20460796356201,0.0166840124875307,-1.7553083896637,,-0.000301215943181887,0.000141996482852846,0.000712190463673323,-0.999999761581421
1.69453706015252E+018,,26722,,1694537061,503801242,"""world""",,,7.20462036132813,0.0167079176753759,-1.75532019138336,,-0.000345592998201028,0.000141696829814464,0.000690529646817595,-0.999999761581421
1.69453706016083E+018,,26723,,1694537061,512237632,"""world""",,,7.20461893081665,0.0166581701487303,-1.75533056259155,,-0.000393381487810984,0.000130984975839965,0.000627020141109824,-0.999999701976776
1.69453706016879E+018,,26724,,1694537061,520229699,"""world""",,,7.2046275138855,0.0166759733110666,-1.7553254365921,,-0.000381258869310841,0.000153055458213203,0.000580838182941079,-0.999999761581421
1.69453706017768E+018,,26725,,1694537061,529023662,"""world""",,,7.20460319519043,0.0166699625551701,-1.75530278682709,,-0.000333647796651348,0.000114032096462324,0.000667566841002554,-0.999999761581421
1.69453706018579E+018,,26726,,1694537061,537177830,"""world""",,,7.20461988449097,0.0166346374899149,-1.75532042980194,,-0.000347120832884684,0.00013976456830278,0.000614794960711151,-0.999999821186066
1.69453706019433E+018,,26727,,1694537061,545778325,"""world""",,,7.20462369918823,0.016665892675519,-1.75530576705933,,-0.000334342155838385,0.000136455579195172,0.00062073179287836,-0.999999821186066
1.69453706020214E+018,,26728,,1694537061,553553960,"""world""",,,7.20461797714233,0.0166810639202595,-1.7553049325943,,-0.000343836058164015,0.000108208092569839,0.000671380781568587,-0.999999761581421
1.69453706021061E+018,,26729,,1694537061,561910515,"""world""",,,7.20460510253906,0.0166815109550953,-1.75531470775604,,-0.000395091861719266,0.000126733953948133,0.00067032192600891,-0.999999701976776
1.69453706022132E+018,,26730,,1694537061,572664898,"""world""",,,7.20460414886475,0.0166687201708555,-1.75531053543091,,-0.000321003259159625,0.000124622180010192,0.000730515865143389,-0.999999701976776
1.69453706022738E+018,,26731,,1694537061,578649535,"""world""",,,7.20462942123413,0.0166874155402184,-1.75529778003693,,-0.00034281809348613,0.000159422459546477,0.00070630747359246,-0.999999701976776
1.69453706023575E+018,,26732,,1694537061,587092210,"""world""",,,7.20463752746582,0.016674380749464,-1.7553014755249,,-0.000499874644447118,0.000215303283766843,0.000636201701126993,-0.999999701976776
1.69453706024394E+018,,26733,,1694537061,595131027,"""world""",,,7.20462083816528,0.0167193990200758,-1.75528836250305,,-0.000287007220322266,8.60945219756104E-05,0.000728461367543787,-0.999999761581421
1.69453706025246E+018,,26734,,1694537061,603699671,"""world""",,,7.20463562011719,0.0167042855173349,-1.75530779361725,,-0.000376043986761942,0.000209368838113733,0.000674638664349914,-0.999999701976776
1.69453706026139E+018,,26735,,1694537061,612481610,"""world""",,,7.20465993881226,0.0167037099599838,-1.75528419017792,,-0.000326994457282126,0.000175094290170819,0.000636576383840293,-0.999999701976776
1.69453706026896E+018,,26736,,1694537061,620373050,"""world""",,,7.20462608337402,0.0166893601417542,-1.75531625747681,,-0.000331767019815743,0.000108637417724822,0.000722653523553163,-0.999999701976776
1.69453706027713E+018,,26737,,1694537061,628528148,"""world""",,,7.2046480178833,0.0166922453790903,-1.75530183315277,,-0.000236600753851235,0.000138978997711092,0.000718830560799688,-0.999999761581421
1.69453706028579E+018,,26738,,1694537061,637205600,"""world""",,,7.20460796356201,0.0166804417967796,-1.75528621673584,,-0.000338855810696259,0.000138074683491141,0.000701141834724695,-0.999999761581421
1.6945370602939E+018,,26739,,1694537061,645264189,"""world""",,,7.20462799072266,0.0166609045118094,-1.75528860092163,,-0.000358528108336031,0.000169915670994669,0.000707370869349688,-0.999999642372131
1.69453706030228E+018,,26740,,1694537061,653623266,"""world""",,,7.2046012878418,0.0166354738175869,-1.75528621673584,,-0.000255584833212197,0.000108756641566288,0.000618668796960264,-0.999999821186066
1.69453706031076E+018,,26741,,1694537061,661924374,"""world""",,,7.20462322235107,0.0166667643934488,-1.75530052185059,,-0.000361579150194302,0.000146264283102937,0.000609661859925836,-0.999999821186066
1.6945370603191E+018,,26742,,1694537061,670492015,"""world""",,,7.20461893081665,0.0166995581239462,-1.75529444217682,,-0.000358625431545079,0.000174223037902266,0.000712072942405939,-0.999999701976776
1.69453706032742E+018,,26743,,1694537061,678684978,"""world""",,,7.20462512969971,0.01669080555439,-1.75532460212708,,-0.000376673560822383,0.000165508186910301,0.000701296317856759,-0.999999642372131
1.69453706033563E+018,,26744,,1694537061,687041469,"""world""",,,7.20461559295654,0.0167064145207405,-1.75530087947845,,-0.000357708049705252,0.000144335470395163,0.000656591670121998,-0.999999761581421
1.69453706034397E+018,,26745,,1694537061,695318533,"""world""",,,7.20462083816528,0.0167000256478786,-1.75527715682983,,-0.000333527685143054,0.000112048393930309,0.000671142595820129,-0.999999701976776
1.69453706035236E+018,,26746,,1694537061,703556770,"""world""",,,7.20459794998169,0.0166496969759464,-1.75528645515442,,-0.000272982404567301,0.000145880578202195,0.000690505374222994,-0.999999761581421
1.69453706036063E+018,,26747,,1694537061,711992989,"""world""",,,7.20460605621338,0.0166762713342905,-1.75528919696808,,-0.000318575766868889,0.000115475893835537,0.000666457111947238,-0.999999701976776
1.69453706036927E+018,,26748,,1694537061,720466609,"""world""",,,7.2046160697937,0.0166828949004412,-1.75528645515442,,-0.000342101469868794,0.000188906778930686,0.00069793697912246,-0.999999761581421
1.69453706037731E+018,,26749,,1694537061,728711350,"""world""",,,7.20459508895874,0.0166878886520863,-1.75529158115387,,-0.000305993598885834,9.29162270040251E-05,0.000665601342916489,-0.999999701976776
1.69453706038619E+018,,26750,,1694537061,737397274,"""world""",,,7.20459938049316,0.0166832730174065,-1.75529277324677,,-0.00036711260327138,0.000147861952427775,0.000667960499413312,-0.999999701976776
1.694537060394E+018,,26751,,1694537061,745389434,"""world""",,,7.20462465286255,0.0166722405701876,-1.75530314445496,,-0.00034417407005094,0.000154376539285295,0.000573181605432183,-0.999999761581421
1.69453706040226E+018,,26752,,1694537061,753723913,"""world""",,,7.20461654663086,0.0166704077273607,-1.75531351566315,,-0.000370245048543438,0.000131196371512488,0.000666422012727708,-0.999999761581421
1.69453706041049E+018,,26753,,1694537061,761958473,"""world""",,,7.20461225509644,0.0166909601539373,-1.75529992580414,,-0.00030166853684932,5.9540405345615E-05,0.000720510841347277,-0.999999701976776
1.69453706041962E+018,,26754,,1694537061,770590844,"""world""",,,7.20463800430298,0.0166867114603519,-1.7553106546402,,-0.00031831965316087,0.00011531361087691,0.000730377389118075,-0.999999701976776
1.69453706042801E+018,,26755,,1694537061,778582389,"""world""",,,7.20463943481445,0.0167001336812973,-1.75529193878174,,-0.000393757363781333,0.000108913118310738,0.000725933641660959,-0.999999701976776
1.69453706043557E+018,,26756,,1694537061,786964359,"""world""",,,7.20462512969971,0.016709066927433,-1.75530362129211,,-0.000316936668241397,0.000128070882055908,0.000713005953002721,-0.999999761581421
1.69453706044396E+018,,26757,,1694537061,795400886,"""world""",,,7.20462608337402,0.0166634153574705,-1.7553071975708,,-0.000335227319737896,0.000136615737574175,0.000652627961244434,-0.999999761581421
1.6945370604526E+018,,26758,,1694537061,803968791,"""world""",,,7.2046217918396,0.0166862476617098,-1.75532448291779,,-0.000300255720503628,0.000171135703567415,0.000676372554153204,-0.999999701976776
1.69453706046119E+018,,26759,,1694537061,812480126,"""world""",,,7.2046389579773,0.0166704840958118,-1.75532901287079,,-0.000385070365155116,9.9577046057675E-05,0.000685427978169173,-0.999999701976776
1.69453706046942E+018,,26760,,1694537061,820794931,"""world""",,,7.20463180541992,0.0166846178472042,-1.75531613826752,,-0.000382034253561869,0.000145117111969739,0.000695706228725612,-0.999999701976776
1.69453706047757E+018,,26761,,1694537061,828815752,"""world""",,,7.20462226867676,0.016665218397975,-1.75533032417297,,-0.000382043974241242,0.000159518371219747,0.000629382266197354,-0.999999761581421
1.69453706048566E+018,,26762,,1694537061,837080666,"""world""",,,7.20462274551392,0.0166787374764681,-1.75531268119812,,-0.00041572013287805,0.000175613255123608,0.000598884944338352,-0.999999761581421
1.69453706049387E+018,,26763,,1694537061,845264075,"""world""",,,7.20464134216309,0.0166911110281944,-1.75531506538391,,-0.000410523411119357,0.000158635026309639,0.000706015445757657,-0.999999642372131
1.69453706050222E+018,,26764,,1694537061,853657253,"""world""",,,7.20463800430298,0.0167090613394976,-1.75529229640961,,-0.000365797546692193,0.00014198622375261,0.000734516361262649,-0.999999642372131
1.69453706051097E+018,,26765,,1694537061,862274843,"""world""",,,7.20463991165161,0.0166810899972916,-1.75530123710632,,-0.000282359833363444,0.000153724147821777,0.000635430391412228,-0.999999761581421
1.69453706051915E+018,,26766,,1694537061,870577770,"""world""",,,7.20462799072266,0.0166662782430649,-1.75530982017517,,-0.000300581159535795,0.000113937101559713,0.000655831419862807,-0.999999761581421
1.6945370605593E+018,,26767,,1694537061,910725947,"""world""",,,7.20462942123413,0.0166758000850678,-1.75528705120087,,-0.000314314500428736,0.000109733118733857,0.000661793514154851,-0.999999701976776
1.69453706055989E+018,,26768,,1694537061,911375175,"""world""",,,7.20460224151611,0.0166622847318649,-1.7552934885025,,-0.000349931069649756,0.0001229672197951,0.000681412639096379,-0.999999701976776
1.69453706056014E+018,,26769,,1694537061,911390483,"""world""",,,7.2046275138855,0.0166756696999073,-1.75528800487518,,-0.000363623374141753,0.000116292430902831,0.000715043279342353,-0.999999701976776
1.69453706056024E+018,,26770,,1694537061,911478714,"""world""",,,7.20460939407349,0.016663433983922,-1.75531339645386,,-0.000321074505336583,0.000108764077594969,0.000712094828486443,-0.999999701976776
1.69453706056167E+018,,26771,,1694537061,913085751,"""world""",,,7.20460987091064,0.0167025905102491,-1.75528883934021,,-0.000336127472110093,0.000186056437087245,0.000723857432603836,-0.999999701976776
1.69453706056926E+018,,26772,,1694537061,920483368,"""world""",,,7.20463180541992,0.0166944246739149,-1.75529098510742,,-0.000314755481667817,8.29263881314546E-05,0.000762843352276832,-0.999999642372131
1.69453706057747E+018,,26773,,1694537061,928805901,"""world""",,,7.20459699630737,0.0166886262595654,-1.75530648231506,,-0.00029819377232343,0.000107950101664756,0.000665736850351095,-0.999999701976776
1.69453706058588E+018,,26774,,1694537061,937159537,"""world""",,,7.20463848114014,0.0167057551443577,-1.75530385971069,,-0.000378191616619006,0.000215902997297235,0.000678578740917146,-0.999999701976776
1.69453706059427E+018,,26775,,1694537061,945608401,"""world""",,,7.20461893081665,0.0166996233165264,-1.7552992105484,,-0.000321917817927897,0.000135117719764821,0.000693122274242342,-0.999999701976776
1.69453706060235E+018,,26776,,1694537061,953740874,"""world""",,,7.20462417602539,0.0166561584919691,-1.75530993938446,,-0.000364485778845847,0.000152067805174738,0.000652078131679446,-0.999999701976776
1.69453706061107E+018,,26777,,1694537061,962529149,"""world""",,,7.20462131500244,0.0166768655180931,-1.75528526306152,,-0.000276009144727141,9.30745372897945E-05,0.00059523293748498,-0.999999821186066
1.69453706061958E+018,,26778,,1694537061,970892470,"""world""",,,7.20463466644287,0.0167030524462461,-1.75528764724731,,-0.000338114914484322,0.000159639923367649,0.000700659700669348,-0.999999701976776
1.69453706062737E+018,,26779,,1694537061,978634874,"""world""",,,7.20461702346802,0.0166987553238869,-1.75531327724457,,-0.000391727080568671,0.000144677323987708,0.000800346140749753,-0.999999642372131
1.69453706063596E+018,,26780,,1694537061,987402984,"""world""",,,7.20462846755981,0.0167083386331797,-1.75531804561615,,-0.000418634415837005,0.000173755557625555,0.000709592772182077,-0.999999701976776
1.69453706064427E+018,,26781,,1694537061,995648592,"""world""",,,7.2046422958374,0.016673369333148,-1.75531017780304,,-0.000409900821978226,0.000157273898366839,0.000672709720674902,-0.999999701976776
1.69453706065242E+018,,26782,,1694537062,3658022,"""world""",,,7.20461845397949,0.0166893508285284,-1.75528848171234,,-0.000413841829868034,0.000180988208740018,0.000650684989523143,-0.999999701976776
1.69453706066386E+018,,26783,,1694537062,15285705,"""world""",,,7.20462322235107,0.016645722091198,-1.75527739524841,,-0.000296962971333414,8.59694773680531E-05,0.000702940684277564,-0.999999761581421
1.69453706066933E+018,,26784,,1694537062,20404285,"""world""",,,7.20461559295654,0.0166805163025856,-1.75528085231781,,-0.000317334342980757,0.000159371251356788,0.000638442754279822,-0.999999761581421
1.69453706067717E+018,,26785,,1694537062,28584658,"""world""",,,7.20460176467896,0.0166818741708994,-1.7553037405014,,-0.000372397335013375,0.000125739985378459,0.000634616299066693,-0.999999761581421
1.69453706068571E+018,,26786,,1694537062,36765916,"""world""",,,7.20462036132813,0.0166903324425221,-1.75530886650085,,-0.000354145740857348,0.000130319996969774,0.000676867261063308,-0.999999761581421
1.69453706069507E+018,,26787,,1694537062,46001376,"""world""",,,7.20459890365601,0.0166800674051046,-1.75530803203583,,-0.000387994339689612,0.000125315578770824,0.00071571086300537,-0.999999701976776
1.69453706070275E+018,,26788,,1694537062,53850886,"""world""",,,7.20459985733032,0.0166388861835003,-1.75531613826752,,-0.000365754734957591,0.000106052779301535,0.000611129158642143,-0.999999821186066
1.6945370607113E+018,,26789,,1694537062,62328234,"""world""",,,7.20459175109863,0.0166450627148151,-1.75531041622162,,-0.00037756483652629,0.000131694643641822,0.000642281607724726,-0.999999701976776
1.69453706071936E+018,,26790,,1694537062,70797857,"""world""",,,7.20460844039917,0.01663913205266,-1.75530338287354,,-0.000327375397318974,0.000153611486894079,0.000587210815865546,-0.999999821186066
1.6945370607277E+018,,26791,,1694537062,79123289,"""world""",,,7.20461130142212,0.0167050044983625,-1.75527632236481,,-0.000293998658889905,0.000117437040898949,0.000697540352120996,-0.999999761581421
1.69453706073588E+018,,26792,,1694537062,87240596,"""world""",,,7.20460510253906,0.0166827607899904,-1.75530445575714,,-0.000264308473560959,9.84943690127693E-05,0.000643986510112882,-0.999999761581421
1.6945370607438E+018,,26793,,1694537062,95242103,"""world""",,,7.20459413528442,0.0166712775826454,-1.75530290603638,,-0.000308919814415276,0.000113658650661819,0.000678052252624184,-0.999999701976776
1.69453706075621E+018,,26794,,1694537062,107160404,"""world""",,,7.20460844039917,0.016694825142622,-1.75530672073364,,-0.000325808388879523,0.000152726235683076,0.000597701640799642,-0.999999761581421
1.69453706076078E+018,,26795,,1694537062,112025294,"""world""",,,7.20463228225708,0.0166536401957273,-1.75531506538391,,-0.000339968217303976,8.87406276888214E-05,0.000669927161652595,-0.999999761581421
1.69453706076909E+018,,26796,,1694537062,120345956,"""world""",,,7.20463562011719,0.016669075936079,-1.75532066822052,,-0.000382660567993298,0.000117311297799461,0.00072608282789588,-0.999999642372131
1.69453706077754E+018,,26797,,1694537062,128653972,"""world""",,,7.20464611053467,0.0166643708944321,-1.75531136989594,,-0.000367127096978948,0.000141632801387459,0.000650581205263734,-0.999999761581421
1.69453706078623E+018,,26798,,1694537062,137267183,"""world""",,,7.20463705062866,0.016684902831912,-1.75530219078064,,-0.000311733310809359,0.000139875366585329,0.000684287922922522,-0.999999761581421
1.69453706079437E+018,,26799,,1694537062,145777035,"""world""",,,7.20463418960571,0.0166676882654428,-1.75530755519867,,-0.00029942361288704,0.000111283785372507,0.000613093783613294,-0.999999821186066
1.69453706080287E+018,,26800,,1694537062,154347050,"""world""",,,7.20462989807129,0.0166953261941671,-1.7552934885025,,-0.00030170485842973,0.000130649699713103,0.000690454617142677,-0.999999701976776
1.69453706081076E+018,,26801,,1694537062,162207844,"""world""",,,7.20464563369751,0.0166795253753662,-1.7553197145462,,-0.000318571575917304,0.000109246037027333,0.000687453430145979,-0.999999701976776
1.69453706081891E+018,,26802,,1694537062,170308540,"""world""",,,7.20461225509644,0.0166726317256689,-1.7553346157074,,-0.00029408885166049,7.83693976700306E-05,0.00060397363267839,-0.999999761581421
1.69453706082768E+018,,26803,,1694537062,179047261,"""world""",,,7.20461511611939,0.0166877396404743,-1.75530779361725,,-0.000273916521109641,0.000146047284943052,0.000650425150524825,-0.999999821186066
1.69453706083588E+018,,26804,,1694537062,187278404,"""world""",,,7.2045955657959,0.0166644528508186,-1.75532281398773,,-0.000295505509711802,8.17138061393052E-05,0.00068665505386889,-0.999999701976776
1.69453706084557E+018,,26805,,1694537062,196971572,"""world""",,,7.20461082458496,0.0166739318519831,-1.75531041622162,,-0.000335987308062613,9.54580391407944E-05,0.000710840569809079,-0.999999701976776
1.69453706085311E+018,,26806,,1694537062,204353001,"""world""",,,7.20461130142212,0.016689108684659,-1.75530672073364,,-0.000295486359391361,0.000134437839733437,0.000617860583588481,-0.999999761581421
1.69453706086102E+018,,26807,,1694537062,212378751,"""world""",,,7.20461130142212,0.0167165398597717,-1.75529098510742,,-0.000300985819194466,0.000173346648807637,0.000619071943219751,-0.999999821186066
1.69453706086941E+018,,26808,,1694537062,220540853,"""world""",,,7.20461225509644,0.0167222581803799,-1.75528073310852,,-0.000312148273224011,0.000154813824337907,0.000604777596890926,-0.999999821186066
1.69453706087754E+018,,26809,,1694537062,228604744,"""world""",,,7.20460176467896,0.0167114567011595,-1.75529003143311,,-0.000367369124433026,0.000121549266623333,0.000600757251959294,-0.999999761581421
1.69453706088537E+018,,26810,,1694537062,236843250,"""world""",,,7.20456981658936,0.0166746564209461,-1.75530898571014,,-0.000353946961695328,0.000108716594695579,0.000619077414739877,-0.999999821186066
1.69453706089388E+018,,26811,,1694537062,245329419,"""world""",,,7.20458841323853,0.0166863575577736,-1.75530159473419,,-0.000339132879162207,0.000151260828715749,0.000631186238024384,-0.999999821186066
1.69453706090282E+018,,26812,,1694537062,254124780,"""world""",,,7.20458316802979,0.0166848301887512,-1.75530791282654,,-0.000361469225026667,0.000109595282992814,0.000731870939489454,-0.999999701976776
1.69453706091091E+018,,26813,,1694537062,262288522,"""world""",,,7.2045955657959,0.0166852120310068,-1.75530576705933,,-0.000279617554042488,0.000118157855467871,0.000667940534185618,-0.999999761581421
1.69453706091904E+018,,26814,,1694537062,270496892,"""world""",,,7.20461273193359,0.016679435968399,-1.75530779361725,,-0.000344005558872595,0.00015388622705359,0.00067216285970062,-0.999999761581421
1.69453706092704E+018,,26815,,1694537062,278487968,"""world""",,,7.20461988449097,0.0166925322264433,-1.75531005859375,,-0.000425966602051631,0.000184963530045934,0.000706153456121683,-0.999999701976776
1.69453706093946E+018,,26816,,1694537062,290824013,"""world""",,,7.20463514328003,0.0166807603091002,-1.75530004501343,,-0.000358838675310835,0.000186043835128658,0.000656574324239045,-0.999999761581421
1.694537060944E+018,,26817,,1694537062,295432389,"""world""",,,7.20461177825928,0.0167210008949041,-1.75531315803528,,-0.000438957213191316,0.000159093717229553,0.000652923772577196,-0.999999761581421
1.69453706095238E+018,,26818,,1694537062,303766871,"""world""",,,7.20463418960571,0.0167270638048649,-1.75531220436096,,-0.000415720656746998,0.000189467871678062,0.00072185939643532,-0.999999642372131
1.69453706096104E+018,,26819,,1694537062,312435137,"""world""",,,7.20458602905273,0.0166475027799606,-1.75535798072815,,-0.000320278690196574,6.87069477862678E-05,0.00066878431243822,-0.999999701976776
1.69453706096919E+018,,26820,,1694537062,320633442,"""world""",,,7.20462560653687,0.0166769102215767,-1.75532841682434,,-0.000345278618624434,0.000159912553499453,0.00066529173636809,-0.999999761581421
1.69453706097729E+018,,26821,,1694537062,328716980,"""world""",,,7.2045955657959,0.0166607070714235,-1.75531435012817,,-0.000356311560608447,0.00012384592264425,0.000648940447717905,-0.999999701976776
1.69453706098589E+018,,26822,,1694537062,337290535,"""world""",,,7.20460414886475,0.0166961420327425,-1.755291223526,,-0.000352281756931916,0.000144166013342328,0.000663211161736399,-0.999999761581421
1.69453706099515E+018,,26823,,1694537062,346503435,"""world""",,,7.20460605621338,0.0166923198848963,-1.75531351566315,,-0.000353601877577603,0.000147711078170687,0.000716452370397747,-0.999999642372131
1.69453706100296E+018,,26824,,1694537062,353928335,"""world""",,,7.20459270477295,0.0166812110692263,-1.75531005859375,,-0.000296223588520661,0.000119047297630459,0.000651332375127822,-0.999999821186066
1.69453706101112E+018,,26825,,1694537062,362335718,"""world""",,,7.20459842681885,0.0166713409125805,-1.75530469417572,,-0.000278133957181126,8.07927208370529E-05,0.000652602699119598,-0.999999761581421
1.69453706101923E+018,,26826,,1694537062,370529345,"""world""",,,7.20461225509644,0.0166971404105425,-1.75529992580414,,-0.000275106256594881,7.7030184911564E-05,0.000702034216374159,-0.999999701976776
1.69453706102766E+018,,26827,,1694537062,379100819,"""world""",,,7.20461177825928,0.0167043842375278,-1.7553071975708,,-0.000332065479597077,0.000107069528894499,0.00061781908152625,-0.999999761581421
1.69453706103568E+018,,26828,,1694537062,387037329,"""world""",,,7.20460033416748,0.016697708517313,-1.75531673431396,,-0.000279615225736052,8.95755583769642E-05,0.000604963395744562,-0.999999761581421
1.69453706104407E+018,,26829,,1694537062,395507183,"""world""",,,7.20461750030518,0.0166934374719858,-1.75530970096588,,-0.000325008848449215,8.96905767149292E-05,0.000649274501483887,-0.999999761581421
1.69453706105305E+018,,26830,,1694537062,404490523,"""world""",,,7.2045955657959,0.0167343057692051,-1.75530469417572,,-0.000332591735059395,8.6059830209706E-05,0.000705985527019948,-0.999999761581421
1.69453706106144E+018,,26831,,1694537062,412854591,"""world""",,,7.20462226867676,0.0167046766728163,-1.75530242919922,,-0.000286827387753874,8.68696006364189E-05,0.000685590319335461,-0.999999761581421
1.69453706106912E+018,,26832,,1694537062,420580804,"""world""",,,7.20461988449097,0.0166696086525917,-1.75530660152435,,-0.00034080128534697,6.80885423207655E-05,0.000628473411779851,-0.999999761581421
1.69453706107745E+018,,26833,,1694537062,428866557,"""world""",,,7.2046217918396,0.0166957527399063,-1.75530016422272,,-0.000253778009209782,0.000107948231743649,0.000636685464996845,-0.999999761581421
1.69453706108569E+018,,26834,,1694537062,437183169,"""world""",,,7.20461702346802,0.0166940540075302,-1.755291223526,,-0.000411195360356942,0.000140860720421188,0.000680310884490609,-0.999999701976776
1.69453706109417E+018,,26835,,1694537062,445491397,"""world""",,,7.20461368560791,0.0166626963764429,-1.75529479980469,,-0.000329157919622958,0.000112654684926383,0.000664563965983689,-0.999999701976776
1.69453706110296E+018,,26836,,1694537062,454140504,"""world""",,,7.20461368560791,0.0166683550924063,-1.75529885292053,,-0.000377664429834113,0.000123487348901108,0.00062273076036945,-0.999999761581421
1.69453706111091E+018,,26837,,1694537062,462314446,"""world""",,,7.20462560653687,0.0166994147002697,-1.75528907775879,,-0.000313184369588271,0.000116705487016588,0.000647147127892822,-0.999999761581421
1.69453706111889E+018,,26838,,1694537062,470368701,"""world""",,,7.20464706420898,0.0167471934109926,-1.75526738166809,,-0.000320513383485377,0.000159153307322413,0.000710601569153369,-0.999999701976776
1.69453706112805E+018,,26839,,1694537062,479415741,"""world""",,,7.20464992523193,0.0167325790971518,-1.75530099868774,,-0.000415984279243276,0.000123956764582545,0.000675439019687474,-0.999999761581421
1.69453706113593E+018,,26840,,1694537062,487390217,"""world""",,,7.20463180541992,0.0167244262993336,-1.75528597831726,,-0.000342773390002549,0.000157520233187825,0.000679720717016608,-0.999999701976776
1.69453706114411E+018,,26841,,1694537062,495427080,"""world""",,,7.20463752746582,0.016695786267519,-1.75530290603638,,-0.000398802774725482,0.000126884377095848,0.000641260703559965,-0.999999761581421
1.69453706115237E+018,,26842,,1694537062,503828984,"""world""",,,7.20462989807129,0.0166668612509966,-1.75532531738281,,-0.00041302022873424,0.000134291622089222,0.000603565364144743,-0.999999761581421
1.69453706116079E+018,,26843,,1694537062,512253117,"""world""",,,7.20463562011719,0.0166807919740677,-1.75530350208282,,-0.000397439725929871,0.000143285433296114,0.000652867602184415,-0.999999701976776
1.6945370611692E+018,,26844,,1694537062,520632602,"""world""",,,7.20460796356201,0.0166548546403646,-1.75531625747681,,-0.000383181235520169,0.000127676001284271,0.000641222053673118,-0.999999761581421
1.69453706117722E+018,,26845,,1694537062,528665185,"""world""",,,7.20459175109863,0.0166675932705402,-1.7552969455719,,-0.000348751520505175,0.000121977675007656,0.000592360156588256,-0.999999761581421
1.6945370611858E+018,,26846,,1694537062,537251680,"""world""",,,7.20461702346802,0.0166924502700567,-1.75527203083038,,-0.000295147357974201,0.000118183466838673,0.000603905238676816,-0.999999761581421
1.69453706119379E+018,,26847,,1694537062,545206607,"""world""",,,7.20459604263306,0.0166678614914417,-1.75531768798828,,-0.000397682277252898,0.00012464591418393,0.000603407388553023,-0.999999761581421
1.69453706120253E+018,,26848,,1694537062,553946773,"""world""",,,7.20459890365601,0.0166659373790026,-1.75531959533691,,-0.000373984890757129,0.000112936890218407,0.000678627693559974,-0.999999761581421
1.69453706121084E+018,,26849,,1694537062,562183929,"""world""",,,7.20461320877075,0.0166756901890039,-1.75531077384949,,-0.000315105164190754,0.000102525598776992,0.000639239384327084,-0.999999761581421
1.69453706121922E+018,,26850,,1694537062,570656711,"""world""",,,7.2046217918396,0.01671052724123,-1.75529646873474,,-0.000363252736860886,0.00013248814502731,0.000608619011472911,-0.999999821186066
1.6945370612273E+018,,26851,,1694537062,578698960,"""world""",,,7.20462083816528,0.0166777670383453,-1.75531351566315,,-0.000367686239769682,0.000131506967591122,0.000580753898248076,-0.999999761581421
1.69453706123552E+018,,26852,,1694537062,586938547,"""world""",,,7.2046103477478,0.0166596081107855,-1.7553106546402,,-0.000312743330141529,7.22664553904906E-05,0.000657049007713795,-0.999999761581421
1.694537061245E+018,,26853,,1694537062,596433083,"""world""",,,7.20461177825928,0.0166650041937828,-1.75530910491943,,-0.000307658832753077,9.07886205823161E-05,0.000626616703812033,-0.999999821186066
