rosbagTimestamp,header,seq,stamp,secs,nsecs,frame_id,pose,position,x,y,z,orientation,ux,uy,uz,w
1.69453705878733E+018,,26558,,1694537060,138718154,"""world""",,,7.01265239715576,0.909174919128418,-1.79394268989563,,0.000335282675223425,-0.000253201724262908,-0.000187650861334987,-0.99999988079071
1.6945370587939E+018,,26559,,1694537060,145293746,"""world""",,,7.0126371383667,0.909184336662293,-1.79391813278198,,0.000313569355057552,-0.000408751715440303,-0.000213516832445748,-0.99999988079071
1.6945370588028E+018,,26560,,1694537060,154148040,"""world""",,,7.01264524459839,0.909190952777863,-1.79393351078033,,0.000296399957733229,-0.000430375395808369,-0.000223370210733265,-0.99999988079071
1.69453705881097E+018,,26561,,1694537060,162348850,"""world""",,,7.01264190673828,0.909186720848084,-1.79391551017761,,0.000324238644680008,-0.000421458709752187,-0.00026869832072407,-0.999999821186066
1.69453705881908E+018,,26562,,1694537060,170437745,"""world""",,,7.01263761520386,0.909191429615021,-1.79392659664154,,0.000335274293320253,-0.000340367929311469,-0.000284862937405705,-0.99999988079071
1.69453705882749E+018,,26563,,1694537060,178816715,"""world""",,,7.01260805130005,0.909175276756287,-1.79388666152954,,0.000341124454280362,-0.000348162226146087,-0.000278316641924903,-0.999999821186066
1.69453705883621E+018,,26564,,1694537060,187399011,"""world""",,,7.01259899139404,0.909166574478149,-1.79389345645905,,0.000251630845014006,-0.000461816205643117,-0.000315130717353895,-0.999999821186066
1.69453705884487E+018,,26565,,1694537060,195804835,"""world""",,,7.01260137557983,0.909180045127869,-1.7938951253891,,0.0002532368816901,-0.000359498924808577,-6.34073803666979E-05,-0.999999940395355
1.69453705885279E+018,,26566,,1694537060,203986556,"""world""",,,7.01262855529785,0.909185647964478,-1.7938928604126,,0.000312999385641888,-0.000403353071305901,-0.000128316911286674,-0.99999988079071
1.69453705886093E+018,,26567,,1694537060,212293399,"""world""",,,7.01265001296997,0.909186363220215,-1.79393219947815,,0.000353505398379639,-0.000289732386590913,-0.000118779738841113,-0.999999940395355
1.69453705886979E+018,,26568,,1694537060,221155926,"""world""",,,7.01266241073608,0.90917295217514,-1.79392576217651,,0.000350659742252901,-0.000321436469675973,-9.68256863416173E-05,-0.999999940395355
1.69453705887781E+018,,26569,,1694537060,229094314,"""world""",,,7.01267528533936,0.909203767776489,-1.79395174980164,,0.000228735210839659,-0.000317808298859745,-0.000158094917424023,-1
1.69453705888592E+018,,26570,,1694537060,237332099,"""world""",,,7.01267623901367,0.909203350543976,-1.79395532608032,,0.00025902409106493,-0.000309319933876395,-2.18786590266973E-05,-1
1.69453705889436E+018,,26571,,1694537060,245531089,"""world""",,,7.01266098022461,0.909205615520477,-1.79397249221802,,0.000289882969809696,-0.000271589931799099,-0.000259122025454417,-0.99999988079071
1.694537058903E+018,,26572,,1694537060,254349715,"""world""",,,7.01269817352295,0.909205555915833,-1.793985247612,,0.00034723014687188,-0.000300268438877538,-0.000164488883456215,-0.999999940395355
1.6945370589117E+018,,26573,,1694537060,263025215,"""world""",,,7.01272439956665,0.90919303894043,-1.79399335384369,,0.000286765425698832,-0.000256686267675832,-0.000213003251701593,-0.99999988079071
1.69453705892004E+018,,26574,,1694537060,271320904,"""world""",,,7.01267242431641,0.909218907356262,-1.79397940635681,,0.000331904302584007,-0.000294549186946824,-0.000129387961351313,-0.999999940395355
1.6945370589276E+018,,26575,,1694537060,278960230,"""world""",,,7.01269054412842,0.909202218055725,-1.79395747184753,,0.000347467255778611,-0.000259438151260838,-0.000244759052293375,-0.999999940395355
1.69453705893821E+018,,26576,,1694537060,287446801,"""world""",,,7.0126953125,0.909140110015869,-1.79395008087158,,0.000431829190347344,-0.000354819494532421,0.000128369021695107,-0.99999988079071
1.69453705894444E+018,,26577,,1694537060,295760622,"""world""",,,7.01266717910767,0.909173369407654,-1.79396986961365,,0.000307305279420689,-0.000387012318242341,-0.000231242956942879,-0.99999988079071
1.69453705895289E+018,,26578,,1694537060,304121168,"""world""",,,7.01265525817871,0.909184992313385,-1.79396796226501,,0.000209047488169745,-0.000363666360499337,-0.000370871799532324,-0.999999940395355
1.69453705896122E+018,,26579,,1694537060,312516295,"""world""",,,7.01263904571533,0.90917831659317,-1.79392731189728,,0.000309840805130079,-0.000365379528375342,-0.000190505379578099,-0.999999940395355
1.69453705896951E+018,,26580,,1694537060,320687331,"""world""",,,7.01264381408691,0.909177541732788,-1.79393577575684,,0.000357042095856741,-0.000401605910155922,-8.92886819201522E-05,-0.99999988079071
1.69453705897778E+018,,26581,,1694537060,329062383,"""world""",,,7.01262044906616,0.909187138080597,-1.79392993450165,,0.000368201232049614,-0.00037402129964903,-0.000169220016687177,-0.99999988079071
1.69453705898596E+018,,26582,,1694537060,337348036,"""world""",,,7.01262855529785,0.909173250198364,-1.79391312599182,,0.000342619634466246,-0.000398309493903071,-0.000158991839271039,-0.99999988079071
1.69453705899454E+018,,26583,,1694537060,345764872,"""world""",,,7.01258945465088,0.90919828414917,-1.79389786720276,,0.000372816895833239,-0.000438211136497557,-0.000301353225950152,-0.999999761581421
1.69453705900343E+018,,26584,,1694537060,354226101,"""world""",,,7.01261520385742,0.909180164337158,-1.79390943050385,,0.000321054394589737,-0.00045338791096583,-0.000212718252441846,-0.99999988079071
1.6945370590126E+018,,26585,,1694537060,363818386,"""world""",,,7.01261711120606,0.909202754497528,-1.79391670227051,,0.000172690532053821,-0.000436038128100336,-0.000281234621070325,-0.999999821186066
1.69453705901973E+018,,26586,,1694537060,371113414,"""world""",,,7.01264142990112,0.909229397773743,-1.79393708705902,,0.000225046707782894,-0.000393137888750061,-0.000334226788254455,-0.999999821186066
1.69453705902764E+018,,26587,,1694537060,378997884,"""world""",,,7.01261377334595,0.909213483333588,-1.79393744468689,,0.000218275963561609,-0.000360452599124983,-0.00025278003886342,-0.99999988079071
1.694537059036E+018,,26588,,1694537060,387302238,"""world""",,,7.01264476776123,0.909201622009277,-1.79395759105682,,0.000403595680836588,-0.00034910420072265,-0.000206196869839914,-0.999999940395355
1.69453705904439E+018,,26589,,1694537060,395682327,"""world""",,,7.01266098022461,0.909185945987701,-1.79391884803772,,0.000375359872123227,-0.000324883119901642,-0.000293806486297399,-0.999999821186066
1.69453705905293E+018,,26590,,1694537060,404277379,"""world""",,,7.01265573501587,0.909201860427856,-1.79396605491638,,0.000321998755680397,-0.000344229658367112,-0.000130399901536293,-0.999999940395355
1.69453705906097E+018,,26591,,1694537060,412326907,"""world""",,,7.01267004013062,0.909193158149719,-1.79393434524536,,0.0002503898285795,-0.000282143038930371,-0.00014345814997796,-0.999999940395355
1.69453705906931E+018,,26592,,1694537060,420696682,"""world""",,,7.01270771026611,0.909195423126221,-1.79394888877869,,0.00036280186031945,-0.000305812136502936,-0.000319651502650231,-0.99999988079071
1.69453705907756E+018,,26593,,1694537060,428839880,"""world""",,,7.01268577575684,0.909207820892334,-1.7939670085907,,0.00029573219944723,-0.000255111401202157,-0.000255701743299142,-0.99999988079071
1.69453705908583E+018,,26594,,1694537060,437192609,"""world""",,,7.01267147064209,0.90920490026474,-1.79394829273224,,0.000303799315588549,-0.000308183749439195,-0.000206794240511954,-0.99999988079071
1.69453705909445E+018,,26595,,1694537060,445832940,"""world""",,,7.01266765594482,0.909125328063965,-1.79391181468964,,0.000529434124473482,-0.00020187211339362,0.000169629711308517,-0.99999988079071
1.69453705910278E+018,,26596,,1694537060,454147013,"""world""",,,7.01265954971314,0.90916109085083,-1.79393136501312,,0.000375880917999893,-0.000262619723798707,-0.000284652138361707,-0.99999988079071
1.69453705911107E+018,,26597,,1694537060,462166869,"""world""",,,7.01266098022461,0.909196138381958,-1.79394602775574,,0.000296201120363548,-0.000297982740448788,-6.75958508509211E-05,-0.999999940395355
1.69453705911934E+018,,26598,,1694537060,470623636,"""world""",,,7.01263666152954,0.909176647663116,-1.79393339157105,,0.000268114294158295,-0.000320428080158308,-0.000354693620465696,-0.999999940395355
1.69453705912843E+018,,26599,,1694537060,479397080,"""world""",,,7.01263475418091,0.909185767173767,-1.7939281463623,,0.000228450662689283,-0.0003086696669925,-0.000239701941609383,-0.99999988079071
1.69453705913615E+018,,26600,,1694537060,487502717,"""world""",,,7.01263666152954,0.909185230731964,-1.79391610622406,,0.000243335525738075,-0.000368603097740561,-0.000433245324529707,-0.99999988079071
1.69453705914429E+018,,26601,,1694537060,495565597,"""world""",,,7.01263046264648,0.909197628498077,-1.7939110994339,,0.0002667089283932,-0.00028273559291847,-0.000270604941761121,-0.99999988079071
1.69453705915407E+018,,26602,,1694537060,505332356,"""world""",,,7.01260757446289,0.909181416034699,-1.79390263557434,,0.000254173326538876,-0.000306387461023405,-0.000225680822040886,-0.999999940395355
1.69453705916081E+018,,26603,,1694537060,512129265,"""world""",,,7.01261043548584,0.909147441387177,-1.79391121864319,,0.000335118354996666,-0.000342676503350958,-0.000404473074013367,-0.999999821186066
1.69453705916939E+018,,26604,,1694537060,520720695,"""world""",,,7.01258563995361,0.909176349639893,-1.79391860961914,,0.0003735949867405,-0.000391729932744056,-0.000294191064313054,-0.99999988079071
1.69453705917775E+018,,26605,,1694537060,529047684,"""world""",,,7.01260995864868,0.909136593341827,-1.79385852813721,,0.000546924420632422,-0.000366146530723199,6.36546974419616E-05,-0.999999821186066
1.69453705918588E+018,,26606,,1694537060,537256697,"""world""",,,7.01261186599731,0.909180283546448,-1.79389047622681,,0.000411949644330889,-0.000439034134615213,-0.000132875618874095,-0.99999988079071
1.69453705919411E+018,,26607,,1694537060,545485449,"""world""",,,7.01265144348145,0.909145534038544,-1.79389953613281,,0.000377341697458178,-0.000427774211857468,-2.30483165069018E-05,-0.99999988079071
1.69453705920224E+018,,26608,,1694537060,553603129,"""world""",,,7.01268005371094,0.909177780151367,-1.79392695426941,,0.000353009527316317,-0.000429862062446773,-0.00015030158101581,-0.999999821186066
1.69453705921246E+018,,26609,,1694537060,563696601,"""world""",,,7.01265668869019,0.909178614616394,-1.79391169548035,,0.000387108506402001,-0.000416716648032889,-2.07034372579074E-05,-0.999999821186066
1.69453705921949E+018,,26610,,1694537060,570857553,"""world""",,,7.01267957687378,0.909193277359009,-1.79392337799072,,0.00024007452884689,-0.000369596149539575,-0.000426474609412253,-0.999999821186066
1.69453705922779E+018,,26611,,1694537060,579103064,"""world""",,,7.01268339157105,0.909192383289337,-1.793940782547,,0.000305408175336197,-0.000399046170059592,-0.000135458642034791,-0.99999988079071
1.69453705923597E+018,,26612,,1694537060,587337954,"""world""",,,7.01271104812622,0.909194767475128,-1.79394292831421,,0.000321661616908386,-0.000388261221814901,-0.000180988339707255,-0.99999988079071
1.69453705924428E+018,,26613,,1694537060,595464323,"""world""",,,7.01273012161255,0.909211099147797,-1.79396319389343,,0.00026339860050939,-0.000383553240681067,-0.000261228764429688,-0.999999940395355
1.69453705925263E+018,,26614,,1694537060,603784169,"""world""",,,7.01269817352295,0.909178733825684,-1.79396820068359,,0.000314913253532723,-0.000366112246410921,-6.79174627293833E-05,-0.99999988079071
1.69453705926087E+018,,26615,,1694537060,612141574,"""world""",,,7.01266813278198,0.909165382385254,-1.79394578933716,,0.000304232846247032,-0.000378260912839323,-0.000186558638233691,-0.999999940395355
1.69453705926987E+018,,26616,,1694537060,621251398,"""world""",,,7.01267766952515,0.909166574478149,-1.79395747184753,,0.000290244381176308,-0.000324153603287414,-0.000297824939480051,-0.99999988079071
1.69453705927781E+018,,26617,,1694537060,629022839,"""world""",,,7.01266050338745,0.90920752286911,-1.79394805431366,,0.000307696958770975,-0.000342920742696151,-0.000301784137263894,-0.999999821186066
1.69453705928599E+018,,26618,,1694537060,637352423,"""world""",,,7.01264190673828,0.909174263477325,-1.79391765594482,,0.00041291635716334,-0.000360726873623207,-6.36570694041438E-05,-0.99999988079071
1.69453705929462E+018,,26619,,1694537060,645760264,"""world""",,,7.01263332366943,0.909167647361755,-1.79390430450439,,0.000519523513503373,-0.000341256702085957,2.93315679300576E-05,-0.999999821186066
1.69453705930232E+018,,26620,,1694537060,653644359,"""world""",,,7.01262950897217,0.909189105033875,-1.79388058185577,,0.000486008473671973,-0.000360605627065524,-0.000195789354620501,-0.999999821186066
1.69453705931095E+018,,26621,,1694537060,662254079,"""world""",,,7.01259517669678,0.909157931804657,-1.79388177394867,,0.000404537800932303,-0.000368194334441796,-0.000285049376543611,-0.99999988079071
1.69453705931986E+018,,26622,,1694537060,671177576,"""world""",,,7.01258420944214,0.909180104732513,-1.79390859603882,,0.000342701183399186,-0.000365899264579639,-0.000337706384016201,-0.999999821186066
1.6945370593279E+018,,26623,,1694537060,679284540,"""world""",,,7.01260089874268,0.909118294715881,-1.79385888576508,,0.000587979913689196,-0.000310999428620562,7.21648539183661E-05,-0.999999821186066
1.69453705933616E+018,,26624,,1694537060,687539246,"""world""",,,7.01260137557983,0.909205675125122,-1.79393589496613,,0.000285706977592781,-0.000329014408634976,-0.000225349649554119,-0.999999940395355
1.69453705934422E+018,,26625,,1694537060,695531942,"""world""",,,7.01263570785522,0.909218192100525,-1.79395735263824,,0.000365694955689833,-0.000273013924015686,-0.000304311775835231,-0.99999988079071
1.69453705935286E+018,,26626,,1694537060,704207236,"""world""",,,7.01262187957764,0.909219264984131,-1.79394841194153,,0.000363779749022797,-0.000286347494693473,-0.000332333700498566,-0.99999988079071
1.69453705936104E+018,,26627,,1694537060,712413363,"""world""",,,7.0126519203186,0.909154951572418,-1.79390144348145,,0.000528730568476021,-0.000280842941720039,-8.47200317366514E-06,-0.999999821186066
1.69453705936953E+018,,26628,,1694537060,720944981,"""world""",,,7.01265287399292,0.909171164035797,-1.7938973903656,,0.00036405780701898,-0.000368292763596401,-0.000388071726774797,-0.999999761581421
1.69453705937782E+018,,26629,,1694537060,729117106,"""world""",,,7.01265239715576,0.909182786941528,-1.79393231868744,,0.000341996579663828,-0.00025837731664069,-0.000312689371639863,-0.99999988079071
1.69453705938604E+018,,26630,,1694537060,737329649,"""world""",,,7.01262950897217,0.909176886081696,-1.79391920566559,,0.000371371483197436,-0.000346851156791672,-0.000288525363430381,-0.999999821186066
1.69453705939447E+018,,26631,,1694537060,745851485,"""world""",,,7.01263904571533,0.909207880496979,-1.79393112659454,,0.000416230468545109,-0.000331743183778599,-0.000279622618108988,-0.99999988079071
1.69453705940354E+018,,26632,,1694537060,754897448,"""world""",,,7.0126633644104,0.909194231033325,-1.79393255710602,,0.000477397872600704,-0.000411015993449837,-5.19730601808988E-05,-0.99999988079071
1.69453705941123E+018,,26633,,1694537060,762347740,"""world""",,,7.01266670227051,0.909121870994568,-1.79391551017761,,0.000548732583411038,-0.000341932143783197,0.000134485890157521,-0.999999761581421
1.69453705941993E+018,,26634,,1694537060,771311673,"""world""",,,7.0126485824585,0.909190952777863,-1.79392623901367,,0.000340700178639963,-0.000352456263499334,-0.000246533658355474,-0.99999988079071
1.69453705942815E+018,,26635,,1694537060,778939654,"""world""",,,7.01267385482788,0.909186899662018,-1.7939305305481,,0.000277806568192318,-0.000392105022910982,-7.66304219723679E-05,-0.99999988079071
1.69453705943599E+018,,26636,,1694537060,787330203,"""world""",,,7.0126371383667,0.909176409244537,-1.79394316673279,,0.000401218479964882,-0.000372617563698441,-0.000199489470105618,-0.99999988079071
1.69453705944573E+018,,26637,,1694537060,795799860,"""world""",,,7.01261138916016,0.909184336662293,-1.79393470287323,,0.000358793971827254,-0.000415626302128658,-0.00036233410355635,-0.999999821186066
1.69453705945345E+018,,26638,,1694537060,804035261,"""world""",,,7.01260757446289,0.909183859825134,-1.79392647743225,,0.000367397064110264,-0.000406852079322562,-0.000208525467314757,-0.999999821186066
1.69453705946169E+018,,26639,,1694537060,812937844,"""world""",,,7.01263236999512,0.909202039241791,-1.79395413398743,,0.000267624942352995,-0.000334128853864968,-0.00025381933664903,-0.999999940395355
1.69453705946929E+018,,26640,,1694537060,820685827,"""world""",,,7.01261615753174,0.909168064594269,-1.79393887519836,,0.000358175049768761,-0.000390913395676762,-0.000207664270419627,-0.99999988079071
1.69453705947765E+018,,26641,,1694537060,829020988,"""world""",,,7.01261520385742,0.909182488918304,-1.79390633106232,,0.00030738816712983,-0.000429832434747368,-0.000243306669290178,-0.99999988079071
1.69453705948616E+018,,26642,,1694537060,837382128,"""world""",,,7.01263475418091,0.909182965755463,-1.7939088344574,,0.000225735391722992,-0.000417124305386096,-0.000168326529092155,-0.99999988079071
1.69453705949438E+018,,26643,,1694537060,845738600,"""world""",,,7.01260566711426,0.909203588962555,-1.79390597343445,,0.000319999671773985,-0.000410954526159912,-0.000244008551817387,-0.99999988079071
1.69453705950378E+018,,26644,,1694537060,855156339,"""world""",,,7.01261043548584,0.909169316291809,-1.79392647743225,,0.000348255533026531,-0.000320812949212268,-0.000164342040079646,-0.99999988079071
1.69453705951131E+018,,26645,,1694537060,862514957,"""world""",,,7.01262807846069,0.909195363521576,-1.79391384124756,,0.000363204191671684,-0.000375365663785487,-0.000206242431886494,-0.99999988079071
1.69453705951986E+018,,26646,,1694537060,871268444,"""world""",,,7.0126428604126,0.90917319059372,-1.79392528533936,,0.000384308950742707,-0.000383960403269157,-0.000162825948791578,-0.999999821186066
1.69453705952765E+018,,26647,,1694537060,878950693,"""world""",,,7.01263666152954,0.909190058708191,-1.79391920566559,,0.000320684659527615,-0.00033480700221844,-0.000337585370289162,-0.99999988079071
1.69453705953588E+018,,26648,,1694537060,887297238,"""world""",,,7.01265716552734,0.909206628799439,-1.79392158985138,,0.00031832282547839,-0.000374337250832468,-0.000167244259500876,-0.99999988079071
1.69453705954416E+018,,26649,,1694537060,895448326,"""world""",,,7.01265811920166,0.909194469451904,-1.79395234584808,,0.000321139115840197,-0.00032435916364193,-0.000349026231560856,-0.999999821186066
1.6945370595536E+018,,26650,,1694537060,904808026,"""world""",,,7.01263284683228,0.909181833267212,-1.79393684864044,,0.000384286569897085,-0.000338403770001605,-0.000120037992019206,-0.999999940395355
1.69453705956128E+018,,26651,,1694537060,912289839,"""world""",,,7.01261806488037,0.909151911735535,-1.79393982887268,,0.000411810440709814,-0.000369081360986456,-0.000285570597043261,-0.999999821186066
1.69453705956887E+018,,26652,,1694537060,920255272,"""world""",,,7.01263332366943,0.909173011779785,-1.79394912719727,,0.000415299960877746,-0.000276999518973753,-0.000137848968734033,-0.99999988079071
1.69453705957733E+018,,26653,,1694537060,928707696,"""world""",,,7.01263809204102,0.909162402153015,-1.79395186901093,,0.000286097201751545,-0.000327333604218438,-0.000392247515264899,-0.99999988079071
1.69453705958569E+018,,26654,,1694537060,937069239,"""world""",,,7.01263332366943,0.909176349639893,-1.7939578294754,,0.000320286984788254,-0.000327030924381688,-0.00030210186378099,-0.99999988079071
1.69453705959491E+018,,26655,,1694537060,946304234,"""world""",,,7.01263952255249,0.909174501895905,-1.79394149780273,,0.000278546038316563,-0.000323623680742457,-0.000310829113004729,-0.99999988079071
1.69453705960231E+018,,26656,,1694537060,953720990,"""world""",,,7.01264476776123,0.909173250198364,-1.79392647743225,,0.000366121152183041,-0.000405112601583824,-0.000284656940493733,-0.999999821186066
1.69453705961033E+018,,26657,,1694537060,961727781,"""world""",,,7.01264667510986,0.909176349639893,-1.79392910003662,,0.000278399355011061,-0.000289197341771796,-0.000143952740472741,-0.999999940395355
1.6945370596189E+018,,26658,,1694537060,970233721,"""world""",,,7.01262044906616,0.909175395965576,-1.79390060901642,,0.000328467722283676,-0.000397266645450145,-0.000165620658663102,-0.99999988079071
1.69453705962723E+018,,26659,,1694537060,978597617,"""world""",,,7.01263236999512,0.909220695495606,-1.79391348361969,,0.00026528027956374,-0.000364575331332162,-0.000173851134604774,-0.99999988079071
1.69453705963584E+018,,26660,,1694537060,987118976,"""world""",,,7.01263809204102,0.909199118614197,-1.79391348361969,,0.000303384877042845,-0.000355965486960486,-0.000296565849566832,-0.99999988079071
1.6945370596447E+018,,26661,,1694537060,995654725,"""world""",,,7.0126428604126,0.909209370613098,-1.79390442371368,,0.000291440257569775,-0.000304079934721813,-0.000326807145029306,-0.999999940395355
1.69453705965393E+018,,26662,,1694537061,3816029,"""world""",,,7.01264047622681,0.909184455871582,-1.79391610622406,,0.000360752484994009,-0.000365389074431732,-0.000100243458291516,-0.999999940395355
1.69453705966328E+018,,26663,,1694537061,14112666,"""world""",,,7.01262378692627,0.909208953380585,-1.79393243789673,,0.000305637338897213,-0.000379341043299064,-0.000278381368843839,-0.999999821186066
1.69453705966889E+018,,26664,,1694537061,20267391,"""world""",,,7.01265287399292,0.909217238426209,-1.79396152496338,,0.000249218690441921,-0.000403285783249885,-0.000157884045620449,-0.99999988079071
1.69453705967713E+018,,26665,,1694537061,28468495,"""world""",,,7.01264667510986,0.909183621406555,-1.79395604133606,,0.000269843760179356,-0.000377070682588965,-0.000176459026988596,-0.999999940395355
1.69453705968616E+018,,26666,,1694537061,36846278,"""world""",,,7.01264047622681,0.909182131290436,-1.79395151138306,,0.00030559443985112,-0.000336107128532603,-0.000206223616260104,-0.99999988079071
1.69453705969398E+018,,26667,,1694537061,45352783,"""world""",,,7.01264572143555,0.909163355827332,-1.79391968250275,,0.000395875482354313,-0.000413845351431519,-0.000151009822729975,-0.99999988079071
1.69453705970235E+018,,26668,,1694537061,53724212,"""world""",,,7.01264619827271,0.909151673316956,-1.79394268989563,,0.000297973427223042,-0.000369814748410135,-0.000224605057155713,-0.999999940395355
1.69453705971259E+018,,26669,,1694537061,62699750,"""world""",,,7.01266956329346,0.909194111824036,-1.79393756389618,,0.000276981882052496,-0.000458865484688431,-0.000177546782651916,-0.99999988079071
1.69453705971903E+018,,26670,,1694537061,70399991,"""world""",,,7.01268434524536,0.909188091754913,-1.79393362998962,,0.000290867435978726,-0.000380871177185327,-0.00024348335864488,-0.99999988079071
1.6945370597274E+018,,26671,,1694537061,78749266,"""world""",,,7.0126633644104,0.909226477146149,-1.79396748542786,,0.000258573825703934,-0.000358002987923101,-0.000432678061770275,-0.99999988079071
1.69453705973572E+018,,26672,,1694537061,87080834,"""world""",,,7.01266002655029,0.9091876745224,-1.79393553733826,,0.000278520892607048,-0.00039441097760573,-0.000215186330024153,-0.99999988079071
1.69453705974416E+018,,26673,,1694537061,95434342,"""world""",,,7.01267194747925,0.909228146076202,-1.79397749900818,,0.000298287282930687,-0.000319877435686067,-0.000264596921624616,-0.99999988079071
1.69453705975316E+018,,26674,,1694537061,103931868,"""world""",,,7.01259708404541,0.909160852432251,-1.7939178943634,,0.00028674493660219,-0.000296012061880901,-0.000246139679802582,-0.999999940395355
1.69453705976084E+018,,26675,,1694537061,112275569,"""world""",,,7.01259660720825,0.90915048122406,-1.79392004013062,,0.000297274469630793,-0.000342267594533041,-0.000258965912507847,-0.99999988079071
1.69453705976933E+018,,26676,,1694537061,120406511,"""world""",,,7.01255798339844,0.909129500389099,-1.79392004013062,,0.000273574638413265,-0.00039316836046055,-0.000121480421512388,-0.999999940395355
1.69453705977816E+018,,26677,,1694537061,129595605,"""world""",,,7.01262760162354,0.909130156040192,-1.79395747184753,,0.000372036418411881,-0.000366626831237227,4.99315065098926E-05,-0.99999988079071
1.69453705978569E+018,,26678,,1694537061,137122867,"""world""",,,7.01264333724976,0.909176826477051,-1.7939385175705,,0.000289779651211575,-0.00034751885687001,-4.72957035526633E-05,-0.999999940395355
1.69453705979496E+018,,26679,,1694537061,146174960,"""world""",,,7.01264810562134,0.909212112426758,-1.79393541812897,,0.000274703808827326,-0.000283521338133141,-0.0002848957083188,-0.99999988079071
1.69453705980235E+018,,26680,,1694537061,153701461,"""world""",,,7.01262474060059,0.909212291240692,-1.79392611980438,,0.000280594045761973,-0.000372101407265291,-0.00030319084180519,-0.999999821186066
1.694537059811E+018,,26681,,1694537061,162367592,"""world""",,,7.01266002655029,0.90915584564209,-1.79389929771423,,0.000457427056971937,-0.000294097728328779,6.40831276541576E-05,-0.99999988079071
1.69453705981931E+018,,26682,,1694537061,170640219,"""world""",,,7.01264190673828,0.909197807312012,-1.79395771026611,,0.00029281250317581,-0.000367822882253677,-0.000301272637443617,-0.99999988079071
1.69453705982719E+018,,26683,,1694537061,178573102,"""world""",,,7.01266670227051,0.909200131893158,-1.79393196105957,,0.000376130046788603,-0.000297290767775849,-0.000352826260495931,-0.99999988079071
1.69453705983568E+018,,26684,,1694537061,187063945,"""world""",,,7.01267194747925,0.909185647964478,-1.79394590854645,,0.000390267057809979,-0.000300552725093439,-0.0001117558349506,-0.999999940395355
1.69453705984429E+018,,26685,,1694537061,195645626,"""world""",,,7.01265811920166,0.909197688102722,-1.79393815994263,,0.000380382465664297,-0.000322480715112761,-0.000273022131295875,-0.99999988079071
1.6945370598529E+018,,26686,,1694537061,204120006,"""world""",,,7.01263523101807,0.909177124500275,-1.79394173622131,,0.000425112986704335,-0.000391357199987397,-0.000276835227850825,-0.999999821186066
1.69453705986104E+018,,26687,,1694537061,212397964,"""world""",,,7.01266384124756,0.909184038639069,-1.79392647743225,,0.000408292369684204,-0.000343185005476698,-0.000371668313164264,-0.999999821186066
1.69453705986898E+018,,26688,,1694537061,220374131,"""world""",,,7.01262521743774,0.909187078475952,-1.79394578933716,,0.000345768028637394,-0.000376916112145409,-0.000309652154101059,-0.999999821186066
1.69453705987768E+018,,26689,,1694537061,229041644,"""world""",,,7.01263856887817,0.909202337265015,-1.79391849040985,,0.000431418942753226,-0.000312437099637464,-0.00016957383195404,-0.999999940395355
1.69453705988578E+018,,26690,,1694537061,237147302,"""world""",,,7.01262664794922,0.909183263778687,-1.79392051696777,,0.000319053913699463,-0.000360396486939862,-2.45562587224413E-05,-0.999999940395355
1.69453705989385E+018,,26691,,1694537061,245205532,"""world""",,,7.01261806488037,0.909185111522675,-1.79393255710602,,0.000309097609715536,-0.000341670151101425,-0.000288316747173667,-0.999999940395355
1.69453705990222E+018,,26692,,1694537061,253629929,"""world""",,,7.01260852813721,0.909165978431702,-1.79393482208252,,0.000440835603512824,-0.000376360811060294,-0.000264928909018636,-0.999999821186066
1.69453705991054E+018,,26693,,1694537061,261862635,"""world""",,,7.01262760162354,0.909171402454376,-1.79391670227051,,0.000402808247599751,-0.000340527883963659,-0.000195294560398906,-0.99999988079071
1.69453705991911E+018,,26694,,1694537061,270453635,"""world""",,,7.01263380050659,0.909159779548645,-1.79391443729401,,0.000402967038098723,-0.000386084953788668,-0.000146066508023068,-0.99999988079071
1.69453705992728E+018,,26695,,1694537061,278644088,"""world""",,,7.01263093948364,0.909181594848633,-1.79392266273499,,0.000345515582012013,-0.000334165553795174,-0.000116820920084137,-0.99999988079071
1.6945370599358E+018,,26696,,1694537061,287225527,"""world""",,,7.01264667510986,0.909178733825684,-1.79391050338745,,0.000458287657238543,-0.000411881686886773,-0.000224062037887052,-0.999999821186066
1.694537059944E+018,,26697,,1694537061,295376373,"""world""",,,7.01268005371094,0.909212172031403,-1.79393219947815,,0.000287216214928776,-0.000431648804806173,-0.000182131319888867,-0.999999821186066
1.69453705995297E+018,,26698,,1694537061,303559341,"""world""",,,7.0126633644104,0.90920752286911,-1.79394245147705,,0.000285136542515829,-0.000376157753635198,-0.000204598822165281,-0.99999988079071
1.6945370599613E+018,,26699,,1694537061,312727082,"""world""",,,7.01268196105957,0.909204244613647,-1.79394853115082,,0.000283389381365851,-0.000306445668684319,-0.000155769972479902,-0.999999940395355
1.69453705996897E+018,,26700,,1694537061,320239467,"""world""",,,7.01266813278198,0.909201383590698,-1.79396831989288,,0.000289577554212883,-0.000350034591974691,-0.000237715459661558,-0.99999988079071
1.69453705997704E+018,,26701,,1694537061,328421296,"""world""",,,7.01270532608032,0.909191906452179,-1.79392051696777,,0.000347925437381491,-0.000392199581256136,-0.000252272380748764,-0.999999821186066
1.69453705998571E+018,,26702,,1694537061,337112020,"""world""",,,7.01267385482788,0.909188091754913,-1.79395580291748,,0.000287644594209269,-0.000383499602321535,-9.85758670140058E-05,-0.99999988079071
1.69453705999389E+018,,26703,,1694537061,345259946,"""world""",,,7.01269292831421,0.909168422222137,-1.79394829273224,,0.00037608208367601,-0.00035586699959822,-0.000256634200923145,-0.99999988079071
1.6945370600022E+018,,26704,,1694537061,353595053,"""world""",,,7.01265239715576,0.909218192100525,-1.79397058486938,,0.000400647608330473,-0.000376539857825264,-0.000220731279114261,-0.999999821186066
1.69453706001059E+018,,26705,,1694537061,361983857,"""world""",,,7.01266717910767,0.90919828414917,-1.79396843910217,,0.000291238102363423,-0.000334463809849694,-0.000199075351702049,-0.99999988079071
1.69453706001904E+018,,26706,,1694537061,370338703,"""world""",,,7.01265048980713,0.909184992313385,-1.79393696784973,,0.000320573424687609,-0.000370659021427855,-0.000349557434674352,-0.999999821186066
1.69453706002733E+018,,26707,,1694537061,378682805,"""world""",,,7.01263475418091,0.909156322479248,-1.7939361333847,,0.000319930288242176,-0.000349073234247044,-0.000101390694908332,-0.99999988079071
1.69453706003633E+018,,26708,,1694537061,387811003,"""world""",,,7.01262331008911,0.90916121006012,-1.79392659664154,,0.000234820443438366,-0.000359975994797423,-0.00024575216230005,-0.999999940395355
1.69453706004383E+018,,26709,,1694537061,395241391,"""world""",,,7.01265525817871,0.909171938896179,-1.79389452934265,,0.000368048495147377,-0.00040152930887416,-0.000274136080406606,-0.99999988079071
1.69453706005238E+018,,26710,,1694537061,403781971,"""world""",,,7.0126166343689,0.909175872802734,-1.79390692710876,,0.000421886856202036,-0.000374150753486902,-0.000247298827162012,-0.99999988079071
1.69453706006123E+018,,26711,,1694537061,412589328,"""world""",,,7.01263618469238,0.90916520357132,-1.79390919208527,,0.000459575210697949,-0.000354442367097363,-0.00042756600305438,-0.999999821186066
1.69453706006905E+018,,26712,,1694537061,420477449,"""world""",,,7.01260662078857,0.909195363521576,-1.79389405250549,,0.00032794478465803,-0.000359659112291411,-0.000103140650026035,-0.999999940395355
1.69453706007767E+018,,26713,,1694537061,429124748,"""world""",,,7.01262664794922,0.909138560295105,-1.79386913776398,,0.000459993781987578,-0.000270206975983456,0.000139900599606335,-0.99999988079071
1.69453706008578E+018,,26714,,1694537061,437181801,"""world""",,,7.01265144348145,0.909120857715607,-1.79386711120605,,0.000463631062302738,-0.000229263940127566,0.000170250932569616,-0.999999940395355
1.69453706009456E+018,,26715,,1694537061,445624166,"""world""",,,7.01265144348145,0.909153819084168,-1.79390859603882,,0.00028358495910652,-0.000350621558027342,-0.000223800103412941,-0.999999940395355
1.69453706010217E+018,,26716,,1694537061,453553547,"""world""",,,7.01266241073608,0.909170567989349,-1.79391026496887,,0.00042187943472527,-0.000299324805382639,-0.000282184279058129,-0.999999821186066
1.69453706011146E+018,,26717,,1694537061,462779668,"""world""",,,7.01265907287598,0.909196317195892,-1.79393208026886,,0.000267594616161659,-0.000332340860040858,-0.000198627472855151,-0.999999940395355
1.69453706011905E+018,,26718,,1694537061,470457143,"""world""",,,7.01266193389893,0.909188330173492,-1.79391932487488,,0.00027985917404294,-0.000323112122714519,-0.000106945226434618,-1
1.69453706012882E+018,,26719,,1694537061,480079286,"""world""",,,7.01265287399292,0.909171283245087,-1.79394793510437,,0.000305946479784325,-0.00030402562697418,-0.000276843027677387,-0.999999940395355
1.69453706013549E+018,,26720,,1694537061,486955775,"""world""",,,7.01265525817871,0.909193933010101,-1.79397237300873,,0.000336449622409418,-0.000305750669213012,-0.00031843627220951,-0.99999988079071
1.69453706014404E+018,,26721,,1694537061,495398270,"""world""",,,7.01267337799072,0.909184694290161,-1.79396462440491,,0.000278078514384106,-0.000339190039085224,-0.000230171193834394,-0.999999940395355
1.69453706015249E+018,,26722,,1694537061,503787277,"""world""",,,7.01266193389893,0.909161806106567,-1.79395806789398,,0.000371412432286888,-0.000343372143106535,-0.00017907410801854,-0.99999988079071
1.69453706016081E+018,,26723,,1694537061,512223328,"""world""",,,7.01262950897217,0.909165263175964,-1.79394674301147,,0.000286078109638765,-0.000338636600645259,-0.000290070805931464,-0.999999940395355
1.69453706016877E+018,,26724,,1694537061,520216230,"""world""",,,7.01266717910767,0.909168064594269,-1.79390609264374,,0.00036125592305325,-0.000382978323614225,-0.000222465954720974,-0.999999821186066
1.69453706017758E+018,,26725,,1694537061,529010101,"""world""",,,7.01266384124756,0.909167289733887,-1.79392242431641,,0.00025729977642186,-0.000353090261342004,-0.000216079642996192,-0.99999988079071
1.69453706018581E+018,,26726,,1694537061,537164139,"""world""",,,7.01265621185303,0.909170866012573,-1.79394841194153,,0.000329093571053818,-0.000392788380850106,-2.67390605586115E-05,-0.99999988079071
1.69453706019431E+018,,26727,,1694537061,545764431,"""world""",,,7.01265001296997,0.909196496009827,-1.79392111301422,,0.000276429142104462,-0.000412857218179852,-0.000257070205407217,-0.99999988079071
1.69453706020213E+018,,26728,,1694537061,553540261,"""world""",,,7.01263618469238,0.909198105335236,-1.79391551017761,,0.000307985610561445,-0.000379352190066129,-4.3333613575669E-05,-0.99999988079071
1.69453706021061E+018,,26729,,1694537061,561894447,"""world""",,,7.01264142990112,0.909170508384705,-1.79391574859619,,0.00037673581391573,-0.000432304805144668,-0.000175399007275701,-0.999999821186066
1.69453706022133E+018,,26730,,1694537061,572636930,"""world""",,,7.01263999938965,0.909151554107666,-1.79393005371094,,0.000342205661581829,-0.000344419881002977,-0.000166290556080639,-0.99999988079071
1.69453706022737E+018,,26731,,1694537061,578635242,"""world""",,,7.01265001296997,0.909151315689087,-1.79390132427216,,0.00042597166611813,-0.000341291393851861,0.000293049903120846,-0.999999821186066
1.69453706023565E+018,,26732,,1694537061,587078312,"""world""",,,7.01270008087158,0.909212648868561,-1.79394102096558,,0.000240130379097536,-0.000369243149179965,-0.000127587743918411,-0.99999988079071
1.694537060244E+018,,26733,,1694537061,595117475,"""world""",,,7.01269865036011,0.909187853336334,-1.79391741752625,,0.00035387699608691,-0.000280502048553899,0.000172578424098901,-0.999999940395355
1.69453706025244E+018,,26734,,1694537061,603685970,"""world""",,,7.01265287399292,0.909215688705444,-1.79393601417542,,0.000267456314759329,-0.000359275640221313,-0.000231001715292223,-0.99999988079071
1.69453706026137E+018,,26735,,1694537061,612468308,"""world""",,,7.01268196105957,0.909192800521851,-1.79393792152405,,0.000240803259657696,-0.000248856173129752,-0.000260349101154134,-0.99999988079071
1.69453706026894E+018,,26736,,1694537061,620350041,"""world""",,,7.01265859603882,0.909180164337158,-1.79393351078033,,0.000322731240885332,-0.000364400242688134,-0.000297254155157134,-0.99999988079071
1.69453706027712E+018,,26737,,1694537061,628514348,"""world""",,,7.01265239715576,0.909173250198364,-1.7939248085022,,0.000393346505006775,-0.000358815159415826,-0.000227112876018509,-0.999999821186066
1.69453706028577E+018,,26738,,1694537061,637192027,"""world""",,,7.01265573501587,0.90915447473526,-1.79391431808472,,0.000291295844363049,-0.000346467626513913,-0.000179426788236015,-0.99999988079071
1.69453706029388E+018,,26739,,1694537061,645250326,"""world""",,,7.01267147064209,0.909193873405457,-1.79393196105957,,0.000298576458590105,-0.000366051244782284,-0.00029174264636822,-0.999999940395355
1.69453706030225E+018,,26740,,1694537061,653609681,"""world""",,,7.01266002655029,0.909178733825684,-1.7939248085022,,0.000218314613448456,-0.000345411041053012,-0.000203644915018231,-0.999999940395355
1.69453706031055E+018,,26741,,1694537061,661911106,"""world""",,,7.01268005371094,0.909180581569672,-1.79391574859619,,0.000305063585983589,-0.000347422232152894,-0.000301183259580284,-0.99999988079071
1.69453706031906E+018,,26742,,1694537061,670478242,"""world""",,,7.01267051696777,0.90920478105545,-1.79394233226776,,0.000333994714310393,-0.000317625555908307,-0.000300398911349475,-0.999999821186066
1.69453706032739E+018,,26743,,1694537061,678670889,"""world""",,,7.01267719268799,0.909179031848908,-1.79396307468414,,0.000242534122662619,-0.000371819653082639,-0.000350589252775535,-0.99999988079071
1.69453706033562E+018,,26744,,1694537061,687018199,"""world""",,,7.01264142990112,0.909177660942078,-1.79392743110657,,0.000270900287432596,-0.000358585471985862,-0.000204153606318869,-0.99999988079071
1.69453706034393E+018,,26745,,1694537061,695304962,"""world""",,,7.01265621185303,0.90919303894043,-1.79390931129456,,0.000284436653601006,-0.000318144710035995,-0.000259728636592627,-0.999999940395355
1.69453706035222E+018,,26746,,1694537061,703543023,"""world""",,,7.01265430450439,0.909199297428131,-1.79392075538635,,0.00036550362710841,-0.000344099738867953,-0.000216238287976012,-0.99999988079071
1.69453706036066E+018,,26747,,1694537061,711978820,"""world""",,,7.01264095306397,0.909152567386627,-1.79394054412842,,0.000321777566568926,-0.000357589480699971,-0.000187928526429459,-0.999999940395355
1.69453706036906E+018,,26748,,1694537061,720443625,"""world""",,,7.01262712478638,0.909178853034973,-1.79393839836121,,0.000344660627888516,-0.00035946982097812,-0.000253243022598326,-0.99999988079071
1.69453706037729E+018,,26749,,1694537061,728697771,"""world""",,,7.01263952255249,0.90918380022049,-1.79394400119782,,0.000304222136037424,-0.000322327512549236,-0.000211336082429625,-0.999999940395355
1.69453706038597E+018,,26750,,1694537061,737383114,"""world""",,,7.01262187957764,0.90913724899292,-1.79391324520111,,0.000293119373964146,-0.000397829397115856,-8.23163281893358E-05,-0.999999940395355
1.69453706039398E+018,,26751,,1694537061,745365541,"""world""",,,7.01262140274048,0.909165740013123,-1.79390931129456,,0.000362570950528607,-0.000405106082325801,-0.000262929184827954,-0.999999821186066
1.69453706040222E+018,,26752,,1694537061,753710254,"""world""",,,7.01264381408691,0.909162402153015,-1.7938894033432,,0.000258353160461411,-0.000404948979848996,-0.00024666209355928,-0.999999940395355
1.69453706041047E+018,,26753,,1694537061,761944996,"""world""",,,7.01265668869019,0.909132838249207,-1.79390430450439,,0.00036229522083886,-0.000418628624174744,-8.83560351212509E-05,-0.99999988079071
1.69453706041961E+018,,26754,,1694537061,770558972,"""world""",,,7.01265239715576,0.909170150756836,-1.79392147064209,,0.000285506743239239,-0.000377729127649218,4.49932886112947E-05,-0.99999988079071
1.69453706042769E+018,,26755,,1694537061,778557385,"""world""",,,7.01265335083008,0.909187614917755,-1.79391956329346,,0.000292900047497824,-0.000385762716177851,-7.3241775680799E-05,-0.999999940395355
1.69453706043553E+018,,26756,,1694537061,786941016,"""world""",,,7.01266479492188,0.909198462963104,-1.79393625259399,,0.000397232419345528,-0.000373536313418299,-0.000117042291094549,-0.999999940395355
1.69453706044393E+018,,26757,,1694537061,795386773,"""world""",,,7.01267194747925,0.909209728240967,-1.79395389556885,,0.000385629537049681,-0.0003313762426842,-0.000158509923494421,-0.99999988079071
1.6945370604526E+018,,26758,,1694537061,803954994,"""world""",,,7.01266574859619,0.909219741821289,-1.79397547245026,,0.000367001688573509,-0.000358970632078126,-0.000186492310604081,-0.99999988079071
1.6945370604611E+018,,26759,,1694537061,812456787,"""world""",,,7.01269578933716,0.909205913543701,-1.79395973682404,,0.00034414793481119,-0.00039229920366779,-0.000154887049575336,-0.999999940395355
1.69453706046935E+018,,26760,,1694537061,820772037,"""world""",,,7.01266765594482,0.909237444400787,-1.79396152496338,,0.000291438802378252,-0.000460328359622508,-0.000153403045260347,-0.99999988079071
1.69453706047749E+018,,26761,,1694537061,828802092,"""world""",,,7.01267623901367,0.909177422523499,-1.79394376277924,,0.000405905826482922,-0.000318051344947889,-0.000280237814877182,-0.99999988079071
1.69453706048564E+018,,26762,,1694537061,837067011,"""world""",,,7.0126748085022,0.909148097038269,-1.79390907287598,,0.000446912948973477,-0.000324025604641065,0.000177028734469786,-0.999999821186066
1.69453706049385E+018,,26763,,1694537061,845240317,"""world""",,,7.0126485824585,0.909221708774567,-1.7939647436142,,0.000358934077667072,-0.000331815128447488,-0.00010167904838454,-0.999999940395355
1.69453706050219E+018,,26764,,1694537061,853633615,"""world""",,,7.01264572143555,0.909182548522949,-1.79395639896393,,0.000395203998778015,-0.000297375052468851,-0.000103677819424775,-0.999999940395355
1.69453706051088E+018,,26765,,1694537061,862250748,"""world""",,,7.01262807846069,0.909221291542053,-1.793949842453,,0.000319311890052631,-0.000309191207634285,-0.000229027908062562,-0.99999988079071
1.69453706051912E+018,,26766,,1694537061,870563959,"""world""",,,7.01263761520386,0.909176051616669,-1.79392433166504,,0.000402521865908057,-0.000346690911101177,-0.000204413241590373,-0.99999988079071
1.69453706055927E+018,,26767,,1694537061,910694483,"""world""",,,7.01264429092407,0.909147679805756,-1.79390263557434,,0.000406467908760533,-0.000341647159075364,-0.000228684628382325,-0.999999821186066
1.69453706055988E+018,,26768,,1694537061,911361427,"""world""",,,7.0126485824585,0.909166932106018,-1.7938836812973,,0.000385237945010886,-0.000390899222111329,-0.000330602721078321,-0.999999821186066
1.69453706056013E+018,,26769,,1694537061,911386948,"""world""",,,7.01262474060059,0.909165024757385,-1.7938711643219,,0.000499249086715281,-0.00032687684870325,-1.03951629171206E-06,-0.999999821186066
1.69453706056014E+018,,26770,,1694537061,911400875,"""world""",,,7.01262950897217,0.909209311008453,-1.79390573501587,,0.000279874104307964,-0.000367337197531015,-3.89406959584448E-05,-0.999999940395355
1.69453706056163E+018,,26771,,1694537061,913071778,"""world""",,,7.01263809204102,0.909216225147247,-1.79393446445465,,0.000288040435407311,-0.0004364870255813,-0.000270905962679535,-0.999999821186066
1.69453706056923E+018,,26772,,1694537061,920467559,"""world""",,,7.01263666152954,0.909200549125671,-1.79392433166504,,0.000278121384326369,-0.000458367285318673,-0.000254585931543261,-0.999999821186066
1.6945370605775E+018,,26773,,1694537061,928781515,"""world""",,,7.01263332366943,0.909128069877625,-1.7939190864563,,0.000515176565386355,-0.000245153263676912,0.000174421453266405,-0.999999821186066
1.69453706058573E+018,,26774,,1694537061,937144702,"""world""",,,7.01265907287598,0.909187793731689,-1.79397022724152,,0.000312178424792364,-0.000287629693048075,-2.44409930019174E-05,-0.999999940395355
1.69453706059427E+018,,26775,,1694537061,945583860,"""world""",,,7.01266098022461,0.909194827079773,-1.7939635515213,,0.000346919085131958,-0.000354503543348983,-0.000325413333484903,-0.99999988079071
1.69453706060234E+018,,26776,,1694537061,953727154,"""world""",,,7.01265716552734,0.909172534942627,-1.79394614696503,,0.000322878389852121,-0.000293998775305226,-0.000229726851102896,-0.999999940395355
1.69453706061106E+018,,26777,,1694537061,962505475,"""world""",,,7.01267528533936,0.909180283546448,-1.79395008087158,,0.000270772288786247,-0.00033148707007058,-0.000303978624287993,-0.99999988079071
1.69453706061957E+018,,26778,,1694537061,970864838,"""world""",,,7.01267099380493,0.909201323986053,-1.79394781589508,,0.000240564841078594,-0.000318564270855859,-0.000223384646233171,-0.99999988079071
1.69453706062719E+018,,26779,,1694537061,978619648,"""world""",,,7.01267051696777,0.909138202667236,-1.79392766952515,,0.000506654439959675,-0.000237577856751159,5.85336165386252E-05,-0.99999988079071
1.69453706063594E+018,,26780,,1694537061,987379388,"""world""",,,7.0126576423645,0.90918093919754,-1.79398024082184,,0.000407106184866279,-0.000276067032245919,-7.1252157795243E-05,-0.99999988079071
1.69453706064424E+018,,26781,,1694537061,995634671,"""world""",,,7.01267194747925,0.909184575080872,-1.79394841194153,,0.00029872779850848,-0.000298005325021222,-0.00024279867648147,-0.999999940395355
1.6945370606524E+018,,26782,,1694537062,3644257,"""world""",,,7.01266288757324,0.909211814403534,-1.79394197463989,,0.00025110601563938,-0.000378988508600742,-0.000262374960584566,-0.99999988079071
1.69453706066384E+018,,26783,,1694537062,15271896,"""world""",,,7.01266288757324,0.909189879894257,-1.79391157627106,,0.000113182701170444,-0.000327136134728789,-0.000100702091003768,-1
1.69453706066931E+018,,26784,,1694537062,20390499,"""world""",,,7.01262950897217,0.90919029712677,-1.79391503334045,,0.000266953400569037,-0.000394553004298359,-0.000266665738308802,-0.99999988079071
1.69453706067715E+018,,26785,,1694537062,28561514,"""world""",,,7.01265525817871,0.90914112329483,-1.79387974739075,,0.00047613080823794,-0.000312898337142542,6.12297662883066E-05,-0.99999988079071
1.69453706068571E+018,,26786,,1694537062,36752099,"""world""",,,7.01261329650879,0.909195184707642,-1.79391646385193,,0.000341185921570286,-0.000363030092557892,-0.000273984856903553,-0.999999821186066
1.69453706069504E+018,,26787,,1694537062,45977834,"""world""",,,7.01261711120606,0.909176766872406,-1.79392647743225,,0.000295468635158613,-0.000361543876351789,-7.16553131496767E-06,-0.999999940395355
1.69453706070268E+018,,26788,,1694537062,53827581,"""world""",,,7.0126314163208,0.909145176410675,-1.79390168190002,,0.000303656823234633,-0.000344218715326861,-0.00018087329226546,-0.999999940395355
1.69453706071113E+018,,26789,,1694537062,62314554,"""world""",,,7.01261043548584,0.909169137477875,-1.79391205310822,,0.000264198577497154,-0.000363072467735037,-0.000511051504872739,-0.999999821186066
1.69453706071935E+018,,26790,,1694537062,70784173,"""world""",,,7.01264715194702,0.90916246175766,-1.79391157627106,,0.000279360916465521,-0.000340131111443043,-0.000110074601252563,-1
1.6945370607277E+018,,26791,,1694537062,79100257,"""world""",,,7.01264142990112,0.909184575080872,-1.79390323162079,,0.000218161410884932,-0.000348975911037996,-0.000164454671903513,-0.999999940395355
1.6945370607358E+018,,26792,,1694537062,87226703,"""world""",,,7.01262187957764,0.909168362617493,-1.79393076896667,,0.000298646278679371,-0.000429942039772868,-0.000419321790104732,-0.999999761581421
1.69453706074378E+018,,26793,,1694537062,95219119,"""world""",,,7.01264667510986,0.909174382686615,-1.79392576217651,,0.000306834961520508,-0.000375409435946494,-0.00021499878494069,-0.99999988079071
1.69453706075619E+018,,26794,,1694537062,107130928,"""world""",,,7.01265907287598,0.909151911735535,-1.79391431808472,,0.000346677872585133,-0.000348814326571301,-6.54021059744991E-05,-0.99999988079071
1.69453706076066E+018,,26795,,1694537062,112010637,"""world""",,,7.01264381408691,0.909149825572968,-1.79393446445465,,0.000338991667376831,-0.000389859138522297,-0.000227719952818006,-0.99999988079071
1.69453706076899E+018,,26796,,1694537062,120331585,"""world""",,,7.01268863677979,0.909143924713135,-1.79393625259399,,0.0002661329053808,-0.000317383121000603,-0.000188158373930492,-0.999999940395355
1.69453706077753E+018,,26797,,1694537062,128640209,"""world""",,,7.0127100944519,0.909172177314758,-1.79395294189453,,0.000299329432891682,-0.000285936548607424,-0.000180188551894389,-0.999999940395355
1.69453706078582E+018,,26798,,1694537062,137253497,"""world""",,,7.01270532608032,0.909135401248932,-1.7939088344574,,0.000450400693807751,-0.000276263832347468,0.000278433115454391,-0.99999988079071
1.69453706079436E+018,,26799,,1694537062,145753225,"""world""",,,7.01270914077759,0.909173667430878,-1.79394352436066,,0.000215121108340099,-0.000306509231450036,-0.000196123553905636,-0.999999940395355
1.69453706080285E+018,,26800,,1694537062,154332968,"""world""",,,7.01269912719727,0.909177243709564,-1.79396176338196,,0.000337269651936367,-0.000345140957506374,-5.67240640521049E-05,-0.999999940395355
1.69453706081075E+018,,26801,,1694537062,162194464,"""world""",,,7.01268100738525,0.909209609031677,-1.79396033287048,,0.000317771948175505,-0.000287549133645371,-0.000207075732760131,-0.999999940395355
1.69453706081889E+018,,26802,,1694537062,170291828,"""world""",,,7.01267814636231,0.909189701080322,-1.79394805431366,,0.000390415138099343,-0.000376425276044756,-0.000123114805319346,-0.99999988079071
1.69453706082767E+018,,26803,,1694537062,179033001,"""world""",,,7.01263046264648,0.909166693687439,-1.79392445087433,,0.000359079363988712,-0.000334416778059676,-0.00019587654969655,-0.99999988079071
1.69453706083586E+018,,26804,,1694537062,187254930,"""world""",,,7.01258277893066,0.909169316291809,-1.7939327955246,,0.000350734771927819,-0.000365027546649799,-0.000416896684328094,-0.999999821186066
1.69453706084556E+018,,26805,,1694537062,196948651,"""world""",,,7.01259851455689,0.909168601036072,-1.79390859603882,,0.000388437474612147,-0.000331126648234203,-1.88523863471346E-05,-0.999999940395355
1.69453706085295E+018,,26806,,1694537062,204338979,"""world""",,,7.01258897781372,0.909169793128967,-1.79390454292297,,0.000285920745227486,-0.000374841358279809,-0.000360263104084879,-0.999999821186066
1.694537060861E+018,,26807,,1694537062,212355163,"""world""",,,7.01258373260498,0.909199774265289,-1.79389667510986,,0.000361851911293343,-0.000395953247789294,-0.000327139918226749,-0.99999988079071
1.69453706086951E+018,,26808,,1694537062,220527181,"""world""",,,7.01258850097656,0.909211277961731,-1.79390478134155,,0.000321995030390099,-0.00035894665052183,-0.000199644302483648,-0.99999988079071
1.69453706087711E+018,,26809,,1694537062,228591103,"""world""",,,7.01258373260498,0.909211933612824,-1.79389667510986,,0.000286698370473459,-0.000331586023094133,-0.000149423533002846,-0.999999940395355
1.69453706088536E+018,,26810,,1694537062,236829756,"""world""",,,7.01259422302246,0.909188747406006,-1.7938916683197,,0.000285717687802389,-0.000348792207660153,-6.95205526426434E-05,-0.99999988079071
1.69453706089385E+018,,26811,,1694537062,245315471,"""world""",,,7.01260471343994,0.909172773361206,-1.79388999938965,,0.000386999046895653,-0.00037378427805379,-0.000173033811734058,-0.99999988079071
1.6945370609028E+018,,26812,,1694537062,254111096,"""world""",,,7.01261806488037,0.9091956615448,-1.79391622543335,,0.000337629695422947,-0.000320422812364995,-0.000393662456190214,-0.99999988079071
1.69453706091089E+018,,26813,,1694537062,262274512,"""world""",,,7.01263046264648,0.909174919128418,-1.79390752315521,,0.000338736019330099,-0.000342477374942973,-0.000163821983733214,-0.999999940395355
1.69453706091903E+018,,26814,,1694537062,270482694,"""world""",,,7.01268625259399,0.909192979335785,-1.79392576217651,,0.000306979782180861,-0.000315972632961348,-0.000288828712655231,-0.99999988079071
1.69453706092703E+018,,26815,,1694537062,278474063,"""world""",,,7.01269149780273,0.909141778945923,-1.79389369487762,,0.00053143099648878,-0.000308741698972881,0.000161911390023306,-0.99999988079071
1.69453706093954E+018,,26816,,1694537062,290811075,"""world""",,,7.01270294189453,0.909198999404907,-1.79396021366119,,0.000396321673179045,-0.000322858919389546,-0.000391057255910709,-0.99999988079071
1.69453706094398E+018,,26817,,1694537062,295418891,"""world""",,,7.01270008087158,0.909189999103546,-1.79395651817322,,0.000306834495859221,-0.000324061402352527,-0.000108439504401758,-0.99999988079071
1.69453706095231E+018,,26818,,1694537062,303752971,"""world""",,,7.01269102096558,0.909205913543701,-1.79396998882294,,0.00026965796132572,-0.00027453902293928,-0.000270625547273085,-0.999999940395355
1.69453706096102E+018,,26819,,1694537062,312412047,"""world""",,,7.01268863677979,0.909188807010651,-1.79397213459015,,0.000353419716702774,-0.000320782448397949,-0.000195935426745564,-0.99999988079071
1.69453706096917E+018,,26820,,1694537062,320619536,"""world""",,,7.01266670227051,0.909176826477051,-1.79397964477539,,0.00034564224188216,-0.000329783681081608,-0.000116704104584642,-0.99999988079071
1.69453706097724E+018,,26821,,1694537062,328702874,"""world""",,,7.01265811920166,0.909154891967773,-1.79394817352295,,0.000337290694005787,-0.000322317588143051,8.88029680936597E-05,-0.999999940395355
1.69453706098582E+018,,26822,,1694537062,337276883,"""world""",,,7.01262807846069,0.909161984920502,-1.79393255710602,,0.000379371515009552,-0.000398411240894347,-0.000157449845573865,-0.999999940395355
1.69453706099513E+018,,26823,,1694537062,346479985,"""world""",,,7.0126371383667,0.909187853336334,-1.79392755031586,,0.000331149465637282,-0.000388317566830665,-0.000203420699108392,-0.99999988079071
1.69453706100284E+018,,26824,,1694537062,353906813,"""world""",,,7.01262760162354,0.909193396568298,-1.79392671585083,,0.000362535967724398,-0.000367523462045938,-0.000194768508663401,-0.99999988079071
1.69453706101101E+018,,26825,,1694537062,362312276,"""world""",,,7.01260471343994,0.909183740615845,-1.79390358924866,,0.000313237396767363,-0.000394843140384182,-0.000274467747658491,-0.999999821186066
1.69453706101904E+018,,26826,,1694537062,370503450,"""world""",,,7.01261329650879,0.909175634384155,-1.79389035701752,,0.000261977780610323,-0.000485885422676802,-0.000195133412489668,-0.999999821186066
1.69453706102766E+018,,26827,,1694537062,379085990,"""world""",,,7.01260614395142,0.909183025360107,-1.79386818408966,,0.00032614785595797,-0.000434721237979829,-0.000292546697892249,-0.999999821186066
1.69453706103557E+018,,26828,,1694537062,387013174,"""world""",,,7.01262664794922,0.909182786941528,-1.79389536380768,,0.000304292945656925,-0.000429977546446025,-0.000265895272605121,-0.999999821186066
1.69453706104405E+018,,26829,,1694537062,395493827,"""world""",,,7.01264476776123,0.909175634384155,-1.79388976097107,,0.000316126825055107,-0.000459207338280976,-0.000245938572334126,-0.999999821186066
1.69453706105303E+018,,26830,,1694537062,404476753,"""world""",,,7.01264238357544,0.90917956829071,-1.79390156269074,,0.00027952718664892,-0.0004385796491988,-7.62295312597416E-05,-0.99999988079071
1.69453706106142E+018,,26831,,1694537062,412830804,"""world""",,,7.0126576423645,0.90916508436203,-1.79390072822571,,0.000325738015817478,-0.000361077749403194,-2.37514577747788E-05,-0.999999940395355
1.69453706106908E+018,,26832,,1694537062,420567161,"""world""",,,7.01262855529785,0.909166693687439,-1.79391837120056,,0.000345956563251093,-0.000372297188732773,-0.000135789450723678,-0.999999940395355
1.69453706107744E+018,,26833,,1694537062,428852860,"""world""",,,7.01262187957764,0.909169256687164,-1.79392278194428,,0.00033835883368738,-0.000346372631611302,-0.0001111694436986,-0.99999988079071
1.69453706108566E+018,,26834,,1694537062,437168984,"""world""",,,7.01266670227051,0.909159600734711,-1.7939544916153,,0.000442715012468398,-0.000290782249066979,-0.000327941757859662,-0.999999821186066
1.69453706109414E+018,,26835,,1694537062,445477221,"""world""",,,7.01267528533936,0.909178256988525,-1.79397559165955,,0.000451456871815026,-0.000293763645458966,-0.000304308050544932,-0.999999821186066
1.69453706110265E+018,,26836,,1694537062,454126857,"""world""",,,7.01269149780273,0.909168601036072,-1.79396414756775,,0.00031877591391094,-0.000257468811469153,-0.000228455974138342,-0.999999940395355
1.69453706111088E+018,,26837,,1694537062,462300697,"""world""",,,7.01269721984863,0.909158706665039,-1.79395735263824,,0.000325144763337448,-0.000299823732348159,-0.00018189505499322,-0.999999940395355
1.69453706111885E+018,,26838,,1694537062,470355200,"""world""",,,7.01273441314697,0.909200131893158,-1.79396605491638,,0.000240236549871042,-0.000328447233187035,-0.000264378933934495,-0.99999988079071
1.69453706112804E+018,,26839,,1694537062,479401859,"""world""",,,7.01272583007813,0.909160494804382,-1.79392981529236,,0.000515815860126168,-0.000167978709214367,-0.000124650192447007,-0.99999988079071
1.69453706113593E+018,,26840,,1694537062,487376348,"""world""",,,7.01267623901367,0.909197449684143,-1.79393911361694,,0.000384385755751282,-0.000277243118034676,-0.000175978770130314,-0.999999940395355
1.6945370611441E+018,,26841,,1694537062,495403569,"""world""",,,7.01267147064209,0.909172356128693,-1.7939281463623,,0.00029539133538492,-0.000372903479728848,-0.000339741818606853,-0.99999988079071
1.6945370611524E+018,,26842,,1694537062,503814806,"""world""",,,7.01267862319946,0.909165263175964,-1.79390048980713,,0.000363920844392851,-0.000350143091054633,-0.000354961986886337,-0.99999988079071
1.69453706116077E+018,,26843,,1694537062,512239157,"""world""",,,7.01264905929565,0.909158825874329,-1.79388892650604,,0.000441681244410574,-0.000369221292203292,-0.000272223114734516,-0.999999821186066
1.69453706116918E+018,,26844,,1694537062,520618931,"""world""",,,7.01262903213501,0.909181475639343,-1.79389309883118,,0.000342183309840038,-0.000296209269436076,-0.000184534743311815,-0.99999988079071
1.69453706117722E+018,,26845,,1694537062,528652215,"""world""",,,7.0126166343689,0.909186244010925,-1.79389619827271,,0.00031060868059285,-0.000380361278075725,-0.000142356773721986,-0.999999940395355
1.69453706118574E+018,,26846,,1694537062,537238179,"""world""",,,7.012619972229,0.909181296825409,-1.79389441013336,,0.000282854802208021,-0.000364207691745833,-0.000250089273322374,-0.99999988079071
1.69453706119379E+018,,26847,,1694537062,545192767,"""world""",,,7.01261949539185,0.909118473529816,-1.79384779930115,,0.000446773192379624,-0.000324984343023971,0.000162583848577924,-0.99999988079071
1.69453706120251E+018,,26848,,1694537062,553932775,"""world""",,,7.01260375976563,0.909174859523773,-1.7939178943634,,0.000265233276877552,-0.000421126693254337,-0.000367469270713627,-0.999999821186066
1.69453706121075E+018,,26849,,1694537062,562156903,"""world""",,,7.01258182525635,0.909125745296478,-1.79387414455414,,0.000666677718982101,-0.000246886251261458,0.000392712594475597,-0.999999701976776
1.69453706121916E+018,,26850,,1694537062,570639146,"""world""",,,7.012619972229,0.909164190292358,-1.79392695426941,,0.000385843741241843,-0.000361191836418584,-0.000132930799736641,-0.99999988079071
1.69453706122729E+018,,26851,,1694537062,578684698,"""world""",,,7.01266193389893,0.909201681613922,-1.79393815994263,,0.000338214478688315,-0.000354771764250472,-0.00013894667790737,-0.999999940395355
1.69453706123551E+018,,26852,,1694537062,586925080,"""world""",,,7.01265525817871,0.90918755531311,-1.79391753673553,,0.000333559262799099,-0.000369160494301468,-0.000393829017411917,-0.99999988079071
1.69453706124494E+018,,26853,,1694537062,596419712,"""world""",,,7.0126485824585,0.909178614616394,-1.79391777515411,,0.000373702554497868,-0.000358996941940859,-0.000241080226260237,-0.99999988079071
1.69453706125221E+018,,26854,,1694537062,603587883,"""world""",,,7.01265716552734,0.90917319059372,-1.79393458366394,,0.000302242144243792,-0.000317536556394771,-0.000250612676609308,-0.99999988079071
